[
  {
    "FID":1,
    "district":"Bo",
    "community":"Bum Kaku",
    "facility":"Bum Kaku MCHP",
    "fac_name":"Bum Kaku",
    "type":"MCHP",
    "ownership":"Government",
    "functional":"Functional",
    "lat":7.505273,
    "long":-11.877486,
    "source":"DPPI",
    "source_geo":"GPS",
    "dhis2_id":"fg1YbsySsK4",
    "geo_date":2016,
    "comments":" ",
    "x":-11.877486,
    "y":7.5052729998
  },
  {
    "FID":2,
    "district":"Bo",
    "community":"Kasse",
    "facility":"Kasse MCHP",
    "fac_name":"Kasse",
    "type":"MCHP",
    "ownership":"Government",
    "functional":"Functional",
    "lat":7.53685,
    "long":-11.91978,
    "source":"DPPI",
    "source_geo":"GPS",
    "dhis2_id":"d2vcCqeRJJy",
    "geo_date":2016,
    "comments":" ",
    "x":-11.9197799997,
    "y":7.53685
  },
  {
    "FID":3,
    "district":"Bo",
    "community":"Mano Yorgbo",
    "facility":"Mano Yorgbo MCHP",
    "fac_name":"Mano Yorgbo",
    "type":"MCHP",
    "ownership":"Government",
    "functional":"Functional",
    "lat":7.558374,
    "long":-11.86909,
    "source":"DPPI",
    "source_geo":"GPS",
    "dhis2_id":"shJl21cKmEL",
    "geo_date":2016,
    "comments":" ",
    "x":-11.8690900004,
    "y":7.5583739998
  },
  {
    "FID":4,
    "district":"Bo",
    "community":"Momajo",
    "facility":"Momajo CHP",
    "fac_name":"Momajo",
    "type":"CHP",
    "ownership":"Government",
    "functional":"Functional",
    "lat":7.575193,
    "long":-11.93802,
    "source":"DPPI",
    "source_geo":"GPS",
    "dhis2_id":"fRJTlzAV68y",
    "geo_date":2016,
    "comments":" ",
    "x":-11.93802,
    "y":7.5751930002
  },
  {
    "FID":5,
    "district":"Bo",
    "community":"Jimmi",
    "facility":"Jimmi CHC",
    "fac_name":"Jimmi",
    "type":"CHC",
    "ownership":"Government",
    "functional":"Functional",
    "lat":7.60609,
    "long":-11.81584,
    "source":"DPPI",
    "source_geo":"GPS",
    "dhis2_id":"psVBVk4IYKD",
    "geo_date":2016,
    "comments":" ",
    "x":-11.8158399999,
    "y":7.6060899996
  },
  {
    "FID":6,
    "district":"Bo",
    "community":"Senehun Ngola",
    "facility":"Senehun Ngola MCHP",
    "fac_name":"Senehun Ngola",
    "type":"MCHP",
    "ownership":"Government",
    "functional":"Functional",
    "lat":7.611577,
    "long":-11.867366,
    "source":"DPPI",
    "source_geo":"GPS",
    "dhis2_id":"E2mkfTma48l",
    "geo_date":2021,
    "comments":" ",
    "x":-11.867366,
    "y":7.6115769999
  },
  {
    "FID":7,
    "district":"Bo",
    "community":"Bathurst",
    "facility":"Bathurst MCHP",
    "fac_name":"Bathurst",
    "type":"MCHP",
    "ownership":"Government",
    "functional":"Functional",
    "lat":7.6346,
    "long":-11.6732,
    "source":"WHO",
    "source_geo":"GPS",
    "dhis2_id":"s5PtR2aCIde",
    "geo_date":2019,
    "comments":" ",
    "x":-11.6731999997,
    "y":7.6346000004
  },
  {
    "FID":8,
    "district":"Bo",
    "community":"Kakama",
    "facility":"Kakama MCHP",
    "fac_name":"Kakama",
    "type":"MCHP",
    "ownership":"Government",
    "functional":"Functional",
    "lat":7.6356,
    "long":-11.76005,
    "source":"DPPI",
    "source_geo":"GPS",
    "dhis2_id":"tq4vd17h83f",
    "geo_date":2016,
    "comments":" ",
    "x":-11.7600500001,
    "y":7.6355999997
  },
  {
    "FID":9,
    "district":"Bo",
    "community":"Limba",
    "facility":"Limba CHP",
    "fac_name":"Limba",
    "type":"CHP",
    "ownership":"Government",
    "functional":"Functional",
    "lat":7.643087,
    "long":-11.793313,
    "source":"DPPI",
    "source_geo":"GPS",
    "dhis2_id":"vlYbStUEfWN",
    "geo_date":2021,
    "comments":" ",
    "x":-11.7933129998,
    "y":7.6430869997
  },
  {
    "FID":10,
    "district":"Bo",
    "community":"Sumbuya",
    "facility":"Sumbuya CHC",
    "fac_name":"Sumbuya",
    "type":"CHC",
    "ownership":"Government",
    "functional":"Functional",
    "lat":7.65243,
    "long":-11.96412,
    "source":"DPPI",
    "source_geo":"GPS",
    "dhis2_id":"v4nbdPq3fTm",
    "geo_date":2016,
    "comments":" ",
    "x":-11.9641200003,
    "y":7.6524299997
  },
  {
    "FID":11,
    "district":"Bo",
    "community":"Yambama",
    "facility":"Yambama CHP",
    "fac_name":"Yambama",
    "type":"CHP",
    "ownership":"Government",
    "functional":"Functional",
    "lat":7.65405,
    "long":-11.89158,
    "source":"DPPI",
    "source_geo":"GPS",
    "dhis2_id":"zbJeIizhDXa",
    "geo_date":2016,
    "comments":" ",
    "x":-11.8915799997,
    "y":7.6540499998
  },
  {
    "FID":12,
    "district":"Bo",
    "community":"Upper Saama",
    "facility":"Upper Saama MCHP",
    "fac_name":"Upper Saama",
    "type":"MCHP",
    "ownership":"Government",
    "functional":"Functional",
    "lat":7.668,
    "long":-11.86171,
    "source":"DPPI",
    "source_geo":"GPS",
    "dhis2_id":"rgAyPXkDt72",
    "geo_date":2016,
    "comments":" ",
    "x":-11.86171,
    "y":7.6680000001
  },
  {
    "FID":13,
    "district":"Bo",
    "community":"Niagorehun Gateway",
    "facility":"Niagorehun CHP",
    "fac_name":"Niagorehun",
    "type":"CHP",
    "ownership":"Government",
    "functional":"Functional",
    "lat":7.681798,
    "long":-11.76828,
    "source":"DPPI",
    "source_geo":"GPS",
    "dhis2_id":"Rq0YrzABijG",
    "geo_date":2016,
    "comments":" ",
    "x":-11.7682800001,
    "y":7.6817979997
  },
  {
    "FID":14,
    "district":"Bo",
    "community":"Kaniya",
    "facility":"Kaniya MCHP",
    "fac_name":"Kaniya",
    "type":"MCHP",
    "ownership":"Government",
    "functional":"Functional",
    "lat":7.681905,
    "long":-11.993635,
    "source":"FMFL",
    "source_geo":"GPS",
    "dhis2_id":"gW4wut7X00m",
    "geo_date":2015,
    "comments":" ",
    "x":-11.9936349999,
    "y":7.6819050001
  },
  {
    "FID":15,
    "district":"Bo",
    "community":"Bontiwo",
    "facility":"Bontiwo MCHP",
    "fac_name":"Bontiwo",
    "type":"MCHP",
    "ownership":"Government",
    "functional":"Functional",
    "lat":7.682043,
    "long":-11.81217,
    "source":"DPPI",
    "source_geo":"GPS",
    "dhis2_id":"E9jgaM4D86H",
    "geo_date":2016,
    "comments":" ",
    "x":-11.8121699997,
    "y":7.6820430002
  },
  {
    "FID":16,
    "district":"Bo",
    "community":"Feiba",
    "facility":"Feiba CHP",
    "fac_name":"Feiba",
    "type":"CHP",
    "ownership":"Government",
    "functional":"Functional",
    "lat":7.68217,
    "long":-11.92181,
    "source":"DPPI",
    "source_geo":"GPS",
    "dhis2_id":"EdB5mJiCPil",
    "geo_date":2016,
    "comments":" ",
    "x":-11.9218099998,
    "y":7.6821699997
  },
  {
    "FID":17,
    "district":"Bo",
    "community":"Ngieyehun",
    "facility":"Ngieyehun MCHP",
    "fac_name":"Ngieyehun",
    "type":"MCHP",
    "ownership":"Government",
    "functional":"Functional",
    "lat":7.694391,
    "long":-11.87123,
    "source":"DPPI",
    "source_geo":"GPS",
    "dhis2_id":"CWlYZ1GzalJ",
    "geo_date":2016,
    "comments":" ",
    "x":-11.8712300002,
    "y":7.6943910003
  },
  {
    "FID":18,
    "district":"Bo",
    "community":"Griema Tikonko",
    "facility":"Griema MCHP",
    "fac_name":"Griema",
    "type":"MCHP",
    "ownership":"Government",
    "functional":"Functional",
    "lat":7.695663,
    "long":-11.73574,
    "source":"DPPI",
    "source_geo":"GPS",
    "dhis2_id":"lin1SziVM3K",
    "geo_date":2016,
    "comments":" ",
    "x":-11.7357399996,
    "y":7.6956629996
  },
  {
    "FID":19,
    "district":"Bo",
    "community":"Fanima",
    "facility":"Fanima MCHP",
    "fac_name":"Fanima",
    "type":"MCHP",
    "ownership":"Government",
    "functional":"Functional",
    "lat":7.70198,
    "long":-11.52768,
    "source":"DPPI",
    "source_geo":"GPS",
    "dhis2_id":"Urtet1JUeKP",
    "geo_date":2016,
    "comments":" ",
    "x":-11.5276799997,
    "y":7.7019799996
  },
  {
    "FID":20,
    "district":"Bo",
    "community":"Koribondo",
    "facility":"Koribondo CHC",
    "fac_name":"Koribondo",
    "type":"CHC",
    "ownership":"Government",
    "functional":"Functional",
    "lat":7.711308,
    "long":-11.69365,
    "source":"DPPI",
    "source_geo":"GPS",
    "dhis2_id":"S0OICCgHsk0",
    "geo_date":2016,
    "comments":" ",
    "x":-11.6936500002,
    "y":7.7113079999
  },
  {
    "FID":21,
    "district":"Bo",
    "community":"Mokpendeh",
    "facility":"Mokpendeh MCHP",
    "fac_name":"Mokpendeh",
    "type":"MCHP",
    "ownership":"Government",
    "functional":"Functional",
    "lat":7.7128,
    "long":-11.94917,
    "source":"DPPI",
    "source_geo":"GPS",
    "dhis2_id":"n0dyKYSTioZ",
    "geo_date":2016,
    "comments":" ",
    "x":-11.9491699998,
    "y":7.7128000003
  },
  {
    "FID":22,
    "district":"Bo",
    "community":"Karleh",
    "facility":"Karleh MCHP",
    "fac_name":"Karleh",
    "type":"MCHP",
    "ownership":"Government",
    "functional":"Functional",
    "lat":7.718791,
    "long":-11.84897,
    "source":"DPPI",
    "source_geo":"GPS",
    "dhis2_id":"eDnijqJ24YY",
    "geo_date":2016,
    "comments":" ",
    "x":-11.8489699998,
    "y":7.7187909996
  },
  {
    "FID":23,
    "district":"Bo",
    "community":"Sahn Bumpe",
    "facility":"Sahn Bumpe CHP",
    "fac_name":"Sahn Bumpe",
    "type":"CHP",
    "ownership":"Government",
    "functional":"Functional",
    "lat":7.723389,
    "long":-12.03759,
    "source":"DPPI",
    "source_geo":"GPS",
    "dhis2_id":"Rtd00y1doNU",
    "geo_date":2016,
    "comments":" ",
    "x":-12.0375899998,
    "y":7.7233890003
  },
  {
    "FID":24,
    "district":"Bo",
    "community":"Kpetewoma",
    "facility":"Kpetewoma CHP",
    "fac_name":"Kpetewoma",
    "type":"CHP",
    "ownership":"Government",
    "functional":"Functional",
    "lat":7.734725,
    "long":-11.81521,
    "source":"DPPI",
    "source_geo":"GPS",
    "dhis2_id":"tCb3YPCB2yI",
    "geo_date":2016,
    "comments":" ",
    "x":-11.8152099996,
    "y":7.7347249997
  },
  {
    "FID":25,
    "district":"Bo",
    "community":"Heima",
    "facility":"Heima MCHP",
    "fac_name":"Heima",
    "type":"MCHP",
    "ownership":"Government",
    "functional":"Functional",
    "lat":7.7385,
    "long":-11.9019,
    "source":"WHO",
    "source_geo":"GPS",
    "dhis2_id":"K7ZHRYI0cLl",
    "geo_date":2019,
    "comments":" ",
    "x":-11.9018999999,
    "y":7.7385000002
  },
  {
    "FID":26,
    "district":"Bo",
    "community":"Buma",
    "facility":"Buma MCHP",
    "fac_name":"Buma",
    "type":"MCHP",
    "ownership":"Government",
    "functional":"Functional",
    "lat":7.739233,
    "long":-11.97404,
    "source":"DPPI",
    "source_geo":"GPS",
    "dhis2_id":"rW2vVbBekod",
    "geo_date":2016,
    "comments":" ",
    "x":-11.97404,
    "y":7.7392329998
  },
  {
    "FID":27,
    "district":"Bo",
    "community":"Mano-Jaiama",
    "facility":"Mano-Jaiama CHP",
    "fac_name":"Mano-Jaiama",
    "type":"CHP",
    "ownership":"Government",
    "functional":"Functional",
    "lat":7.749043,
    "long":-11.61361,
    "source":"DPPI",
    "source_geo":"GPS",
    "dhis2_id":"Kd6JXhtVSGR",
    "geo_date":2016,
    "comments":" ",
    "x":-11.61361,
    "y":7.7490429998
  },
  {
    "FID":28,
    "district":"Bo",
    "community":"Mokoba",
    "facility":"Mokoba MCHP",
    "fac_name":"Mokoba",
    "type":"MCHP",
    "ownership":"Government",
    "functional":"Functional",
    "lat":7.757949,
    "long":-11.94804,
    "source":"DPPI",
    "source_geo":"GPS",
    "dhis2_id":"TTEnjA8GWE7",
    "geo_date":2016,
    "comments":" ",
    "x":-11.9480399998,
    "y":7.7579490004
  },
  {
    "FID":29,
    "district":"Bo",
    "community":"Kambawama",
    "facility":"Kambawama MCHP",
    "fac_name":"Kambawama",
    "type":"MCHP",
    "ownership":"Government",
    "functional":"Functional",
    "lat":7.762959,
    "long":-11.474323,
    "source":"FMFL",
    "source_geo":"GPS",
    "dhis2_id":"K3OvYtcfkgN",
    "geo_date":2015,
    "comments":" ",
    "x":-11.4743229997,
    "y":7.7629590004
  },
  {
    "FID":30,
    "district":"Bo",
    "community":"Walihun",
    "facility":"Walihun MCHP",
    "fac_name":"Walihun",
    "type":"MCHP",
    "ownership":"Government",
    "functional":"Functional",
    "lat":7.768091,
    "long":-12.09174,
    "source":"DPPI",
    "source_geo":"GPS",
    "dhis2_id":"Op4bPQHw8ud",
    "geo_date":2016,
    "comments":" ",
    "x":-12.0917400004,
    "y":7.7680909996
  },
  {
    "FID":31,
    "district":"Bo",
    "community":"Bongor",
    "facility":"Bongor MCHP",
    "fac_name":"Bongor",
    "type":"MCHP",
    "ownership":"Government",
    "functional":"Functional",
    "lat":7.772621,
    "long":-11.98698,
    "source":"SARA",
    "source_geo":"GPS",
    "dhis2_id":"tVNtvDfmxlS",
    "geo_date":2017,
    "comments":" ",
    "x":-11.9869799996,
    "y":7.7726209999
  },
  {
    "FID":32,
    "district":"Bo",
    "community":"Sembehun 17",
    "facility":"Sembehun 17 CHP",
    "fac_name":"Sembehun 17",
    "type":"CHP",
    "ownership":"Government",
    "functional":"Functional",
    "lat":7.780206,
    "long":-11.724311,
    "source":"FMFL",
    "source_geo":"GPS",
    "dhis2_id":"R7pidsMezSX",
    "geo_date":2015,
    "comments":" ",
    "x":-11.7243109996,
    "y":7.7802059998
  },
  {
    "FID":33,
    "district":"Bo",
    "community":"Gboyama",
    "facility":"Gboyama CHC",
    "fac_name":"Gboyama",
    "type":"CHC",
    "ownership":"Government",
    "functional":"Functional",
    "lat":7.783575,
    "long":-11.4272,
    "source":"DPPI",
    "source_geo":"GPS",
    "dhis2_id":"JC3Fok6rZsi",
    "geo_date":2016,
    "comments":" ",
    "x":-11.4272000003,
    "y":7.7835749996
  },
  {
    "FID":34,
    "district":"Bo",
    "community":"Serabu",
    "facility":"Serabu Mission Hospital",
    "fac_name":"Serabu Mission",
    "type":"HOSPITAL",
    "ownership":"Faith Based",
    "functional":"Functional",
    "lat":7.793959,
    "long":-12.052095,
    "source":"DPPI",
    "source_geo":"GPS",
    "dhis2_id":"stvHIALBnUc",
    "geo_date":2016,
    "comments":" ",
    "x":-12.0520949996,
    "y":7.793959
  },
  {
    "FID":35,
    "district":"Bo",
    "community":"Kassama",
    "facility":"Kassama MCHP",
    "fac_name":"Kassama",
    "type":"MCHP",
    "ownership":"Government",
    "functional":"Functional",
    "lat":7.794353,
    "long":-11.8315,
    "source":"DPPI",
    "source_geo":"GPS",
    "dhis2_id":"iFWSPgvOnT5",
    "geo_date":2016,
    "comments":" ",
    "x":-11.8314999999,
    "y":7.7943530002
  },
  {
    "FID":36,
    "district":"Bo",
    "community":"Serabu",
    "facility":"Serabu CHC",
    "fac_name":"Serabu",
    "type":"CHC",
    "ownership":"Government",
    "functional":"Functional",
    "lat":7.794467,
    "long":-12.0515,
    "source":"DPPI",
    "source_geo":"GPS",
    "dhis2_id":"IhcOrAMCZMP",
    "geo_date":2016,
    "comments":" ",
    "x":-12.0515,
    "y":7.7944670001
  },
  {
    "FID":37,
    "district":"Bo",
    "community":"Sembehun Tabema",
    "facility":"Sembehun Tabema MCHP",
    "fac_name":"Sembehun Tabema",
    "type":"MCHP",
    "ownership":"Government",
    "functional":"Functional",
    "lat":7.797647,
    "long":-11.86769,
    "source":"DPPI",
    "source_geo":"GPS",
    "dhis2_id":"xYjGCuLscF5",
    "geo_date":2016,
    "comments":" ",
    "x":-11.8676899997,
    "y":7.7976470001
  },
  {
    "FID":38,
    "district":"Bo",
    "community":"Telu",
    "facility":"Telu CHC",
    "fac_name":"Telu",
    "type":"CHC",
    "ownership":"Government",
    "functional":"Functional",
    "lat":7.802711,
    "long":-11.63879,
    "source":"DPPI",
    "source_geo":"GPS",
    "dhis2_id":"YMTxgvLFyer",
    "geo_date":2016,
    "comments":" ",
    "x":-11.6387900002,
    "y":7.8027109998
  },
  {
    "FID":39,
    "district":"Bo",
    "community":"Kpetema Bumpe",
    "facility":"Kpetema CHP",
    "fac_name":"Kpetema",
    "type":"CHP",
    "ownership":"Government",
    "functional":"Functional",
    "lat":7.8202,
    "long":-11.9915,
    "source":"DPPI",
    "source_geo":"GPS",
    "dhis2_id":"hhpl4y2aYNE",
    "geo_date":2016,
    "comments":" ",
    "x":-11.9915000003,
    "y":7.8201999996
  },
  {
    "FID":40,
    "district":"Bo",
    "community":"Yengema",
    "facility":"Yengema MCHP",
    "fac_name":"Yengema",
    "type":"MCHP",
    "ownership":"Government",
    "functional":"Functional",
    "lat":7.823759,
    "long":-12.015263,
    "source":"DPPI",
    "source_geo":"Village Center",
    "dhis2_id":"MDGqDFsx4WL",
    "geo_date":2016,
    "comments":" ",
    "x":-12.0152629999,
    "y":7.8237590001
  },
  {
    "FID":41,
    "district":"Bo",
    "community":"Nianyahun",
    "facility":"Nianyahun CHP",
    "fac_name":"Nianyahun",
    "type":"CHP",
    "ownership":"Government",
    "functional":"Functional",
    "lat":7.825822,
    "long":-11.509363,
    "source":"DPPI",
    "source_geo":"GPS",
    "dhis2_id":"ZyKtTCEgBtn",
    "geo_date":2021,
    "comments":" ",
    "x":-11.5093630004,
    "y":7.8258219999
  },
  {
    "FID":42,
    "district":"Bo",
    "community":"Gbaama",
    "facility":"Gbaama MCHP",
    "fac_name":"Gbaama",
    "type":"MCHP",
    "ownership":"Government",
    "functional":"Functional",
    "lat":7.83848,
    "long":-11.61576,
    "source":"DPPI",
    "source_geo":"GPS",
    "dhis2_id":"a0jN5mmnDJE",
    "geo_date":2016,
    "comments":" ",
    "x":-11.6157600002,
    "y":7.83848
  },
  {
    "FID":43,
    "district":"Bo",
    "community":"Mamboma",
    "facility":"Mamboma CHP",
    "fac_name":"Mamboma",
    "type":"CHP",
    "ownership":"Government",
    "functional":"Functional",
    "lat":7.84042,
    "long":-11.66394,
    "source":"SARA",
    "source_geo":"GPS",
    "dhis2_id":"n8dwF6zMnoW",
    "geo_date":2017,
    "comments":" ",
    "x":-11.6639399998,
    "y":7.8404200004
  },
  {
    "FID":44,
    "district":"Bo",
    "community":"Makayoni",
    "facility":"Makayoni MCHP",
    "fac_name":"Makayoni",
    "type":"MCHP",
    "ownership":"Government",
    "functional":"Functional",
    "lat":7.852134,
    "long":-12.11994,
    "source":"DPPI",
    "source_geo":"GPS",
    "dhis2_id":"KzB8KLBZJAe",
    "geo_date":2016,
    "comments":" ",
    "x":-12.1199400004,
    "y":7.8521340001
  },
  {
    "FID":45,
    "district":"Bo",
    "community":"Faabu",
    "facility":"Faabu CHP",
    "fac_name":"Faabu",
    "type":"CHP",
    "ownership":"Government",
    "functional":"Functional",
    "lat":7.856529,
    "long":-11.54377,
    "source":"DPPI",
    "source_geo":"GPS",
    "dhis2_id":"HHWG6nob0O2",
    "geo_date":2016,
    "comments":" ",
    "x":-11.5437699998,
    "y":7.8565290004
  },
  {
    "FID":46,
    "district":"Bo",
    "community":"Gondama",
    "facility":"Gondama CHC",
    "fac_name":"Gondama",
    "type":"CHC",
    "ownership":"Government",
    "functional":"Functional",
    "lat":7.865625,
    "long":-11.70666,
    "source":"DPPI",
    "source_geo":"GPS",
    "dhis2_id":"NvQrMshyqso",
    "geo_date":2016,
    "comments":" ",
    "x":-11.7066600004,
    "y":7.8656249999
  },
  {
    "FID":47,
    "district":"Bo",
    "community":"Kigbai",
    "facility":"Kigbai MCHP",
    "fac_name":"Kigbai",
    "type":"MCHP",
    "ownership":"Government",
    "functional":"Functional",
    "lat":7.86893,
    "long":-11.50511,
    "source":"DPPI",
    "source_geo":"GPS",
    "dhis2_id":"wJSGhBCPVV7",
    "geo_date":2016,
    "comments":" ",
    "x":-11.5051100003,
    "y":7.8689300003
  },
  {
    "FID":48,
    "district":"Bo",
    "community":"Jormu",
    "facility":"Jormu MCHP",
    "fac_name":"Jormu",
    "type":"MCHP",
    "ownership":"Government",
    "functional":"Functional",
    "lat":7.87165,
    "long":-11.62798,
    "source":"SARA",
    "source_geo":"GPS",
    "dhis2_id":"MoOCa8qPPtv",
    "geo_date":2017,
    "comments":" ",
    "x":-11.6279799999,
    "y":7.8716499998
  },
  {
    "FID":49,
    "district":"Bo",
    "community":"Tugbebu",
    "facility":"Tugbebu CHP",
    "fac_name":"Tugbebu",
    "type":"CHP",
    "ownership":"Government",
    "functional":"Functional",
    "lat":7.877197,
    "long":-11.535703,
    "source":"FMFL",
    "source_geo":"GPS",
    "dhis2_id":"u1q0uV5Gsux",
    "geo_date":2015,
    "comments":" ",
    "x":-11.5357030001,
    "y":7.8771970002
  },
  {
    "FID":50,
    "district":"Bo",
    "community":"Tikonko",
    "facility":"Tikonko CHC",
    "fac_name":"Tikonko",
    "type":"CHC",
    "ownership":"Government",
    "functional":"Functional",
    "lat":7.878328,
    "long":-11.78151,
    "source":"DPPI",
    "source_geo":"GPS",
    "dhis2_id":"VVmSRUJeP8o",
    "geo_date":2016,
    "comments":" ",
    "x":-11.7815099996,
    "y":7.8783280002
  },
  {
    "FID":51,
    "district":"Bo",
    "community":"Lowuma",
    "facility":"Lowuma MCHP",
    "fac_name":"Lowuma",
    "type":"MCHP",
    "ownership":"Government",
    "functional":"Functional",
    "lat":7.87836,
    "long":-11.573692,
    "source":"DPPI",
    "source_geo":"GPS",
    "dhis2_id":"o98gzTAi8WY",
    "geo_date":2021,
    "comments":" ",
    "x":-11.5736920001,
    "y":7.8783599999
  },
  {
    "FID":52,
    "district":"Bo",
    "community":"Pelewahun Ngiebu",
    "facility":"Pelewahun MCHP",
    "fac_name":"Pelewahun",
    "type":"MCHP",
    "ownership":"Government",
    "functional":"Functional",
    "lat":7.885087,
    "long":-11.45862,
    "source":"SARA",
    "source_geo":"GPS",
    "dhis2_id":"lqogPoG5BEG",
    "geo_date":2017,
    "comments":" ",
    "x":-11.4586200004,
    "y":7.8850869999
  },
  {
    "FID":53,
    "district":"Bo",
    "community":"Bumpe",
    "facility":"Bumpe CHC",
    "fac_name":"Bumpe",
    "type":"CHC",
    "ownership":"Government",
    "functional":"Functional",
    "lat":7.889166,
    "long":-11.90342,
    "source":"SARA",
    "source_geo":"GPS",
    "dhis2_id":"gvx18Rcbugy",
    "geo_date":2017,
    "comments":" ",
    "x":-11.9034199998,
    "y":7.889166
  },
  {
    "FID":54,
    "district":"Bo",
    "community":"Taninahun",
    "facility":"Taninahun CHP",
    "fac_name":"Taninahun",
    "type":"CHP",
    "ownership":"Government",
    "functional":"Functional",
    "lat":7.8929,
    "long":-12.08622,
    "source":"DPPI",
    "source_geo":"GPS",
    "dhis2_id":"EU1yoWkbvhi",
    "geo_date":2016,
    "comments":" ",
    "x":-12.0862200004,
    "y":7.8929000004
  },
  {
    "FID":55,
    "district":"Bo",
    "community":"Gollu",
    "facility":"Gollu MCHP",
    "fac_name":"Gollu",
    "type":"MCHP",
    "ownership":"Government",
    "functional":"Functional",
    "lat":7.904004,
    "long":-11.544274,
    "source":"DPPI",
    "source_geo":"GPS",
    "dhis2_id":"U4F289TX5Cp",
    "geo_date":2021,
    "comments":" ",
    "x":-11.5442739996,
    "y":7.9040039999
  },
  {
    "FID":56,
    "district":"Bo",
    "community":"Jembe",
    "facility":"Jembe CHC",
    "fac_name":"Jembe",
    "type":"CHC",
    "ownership":"Government",
    "functional":"Functional",
    "lat":7.91968,
    "long":-11.42828,
    "source":"DPPI",
    "source_geo":"GPS",
    "dhis2_id":"jJyWmH1ED2n",
    "geo_date":2016,
    "comments":" ",
    "x":-11.4282799997,
    "y":7.9196799997
  },
  {
    "FID":57,
    "district":"Bo",
    "community":"Mbundorbu",
    "facility":"Mbundorbu MCHP",
    "fac_name":"Mbundorbu",
    "type":"MCHP",
    "ownership":"Government",
    "functional":"Functional",
    "lat":7.923448,
    "long":-11.51102,
    "source":"DPPI",
    "source_geo":"GPS",
    "dhis2_id":"mpyXU2cI4Uz",
    "geo_date":2016,
    "comments":" ",
    "x":-11.5110200004,
    "y":7.9234479999
  },
  {
    "FID":58,
    "district":"Bo",
    "community":"Haikal Community",
    "facility":"Haikal CHC",
    "fac_name":"Haikal",
    "type":"CHC",
    "ownership":"Private",
    "functional":"Functional",
    "lat":7.925179,
    "long":-11.718481,
    "source":"DPPI",
    "source_geo":"GPS",
    "dhis2_id":"anRpU0w1Dg7",
    "geo_date":2022,
    "comments":" ",
    "x":-11.7184809996,
    "y":7.9251789997
  },
  {
    "FID":59,
    "district":"Bo",
    "community":"Komende Junction",
    "facility":"Jan Christian Helvings Clinic",
    "fac_name":"Jan Christian Helvings Clinic",
    "type":"CHP",
    "ownership":"Faith Based",
    "functional":"Functional",
    "lat":7.928554,
    "long":-11.534828,
    "source":"DPPI",
    "source_geo":"GPS",
    "dhis2_id":"No Data",
    "geo_date":2021,
    "comments":" ",
    "x":-11.5348280002,
    "y":7.9285539998
  },
  {
    "FID":60,
    "district":"Bo",
    "community":"Baoma Station",
    "facility":"Baoma Station CHP",
    "fac_name":"Baoma Station",
    "type":"CHP",
    "ownership":"Government",
    "functional":"Functional",
    "lat":7.929237,
    "long":-11.437911,
    "source":"FMFL",
    "source_geo":"GPS",
    "dhis2_id":"yA4XvYXtIRl",
    "geo_date":2015,
    "comments":" ",
    "x":-11.4379109996,
    "y":7.9292369998
  },
  {
    "FID":61,
    "district":"Bo",
    "community":"Gerehun",
    "facility":"St. Luke's - Gerehun CHC",
    "fac_name":"St. Luke's - Gerehun",
    "type":"CHC",
    "ownership":"Faith Based",
    "functional":"Functional",
    "lat":7.929573,
    "long":-11.576273,
    "source":"DPPI",
    "source_geo":"GPS",
    "dhis2_id":"CdFFtqetD5V",
    "geo_date":2021,
    "comments":" ",
    "x":-11.5762730004,
    "y":7.929573
  },
  {
    "FID":62,
    "district":"Bo",
    "community":"Torwama",
    "facility":"Torwama CHP",
    "fac_name":"Torwama",
    "type":"CHP",
    "ownership":"Government",
    "functional":"Functional",
    "lat":7.930167,
    "long":-11.767815,
    "source":"DPPI",
    "source_geo":"GPS",
    "dhis2_id":"SYhqs7OhzuQ",
    "geo_date":2021,
    "comments":" ",
    "x":-11.7678150003,
    "y":7.9301670004
  },
  {
    "FID":63,
    "district":"Bo",
    "community":"Mendewa  Layout",
    "facility":"Mendewa Layout  CHC",
    "fac_name":"Mendewa Layout",
    "type":"CHC",
    "ownership":"Private",
    "functional":"Functional",
    "lat":7.932193,
    "long":-11.745912,
    "source":"DPPI",
    "source_geo":"GPS",
    "dhis2_id":"No Data",
    "geo_date":2021,
    "comments":" ",
    "x":-11.7459120001,
    "y":7.9321930003
  },
  {
    "FID":64,
    "district":"Bo",
    "community":"Teloma- Torwama Road",
    "facility":"Althe CHP",
    "fac_name":"Althe",
    "type":"CHP",
    "ownership":"Private",
    "functional":"Functional",
    "lat":7.932596,
    "long":-11.723731,
    "source":"DPPI",
    "source_geo":"GPS",
    "dhis2_id":"TYTDJOikSBa",
    "geo_date":2021,
    "comments":" ",
    "x":-11.7237309998,
    "y":7.932596
  },
  {
    "FID":65,
    "district":"Bo",
    "community":"Yamandu",
    "facility":"Yamandu CHC",
    "fac_name":"Yamandu",
    "type":"CHC",
    "ownership":"Government",
    "functional":"Functional",
    "lat":7.93418,
    "long":-11.48926,
    "source":"DPPI",
    "source_geo":"GPS",
    "dhis2_id":"k88nbPWIklE",
    "geo_date":2016,
    "comments":" ",
    "x":-11.4892599996,
    "y":7.9341800002
  },
  {
    "FID":66,
    "district":"Bo",
    "community":"Mendewa",
    "facility":"Mendewa CHP",
    "fac_name":"Mendewa",
    "type":"CHP",
    "ownership":"Private",
    "functional":"Non-Functional",
    "lat":7.9348,
    "long":-11.74796,
    "source":"DPPI",
    "source_geo":"GPS",
    "dhis2_id":"ouYyKjLDDwo",
    "geo_date":2021,
    "comments":" ",
    "x":-11.7479600002,
    "y":7.9348
  },
  {
    "FID":67,
    "district":"Bo",
    "community":"Johnny st. shelmingo",
    "facility":"Sowa's Hospital",
    "fac_name":"Sowa's",
    "type":"HOSPITAL",
    "ownership":"Private",
    "functional":"Functional",
    "lat":7.942532,
    "long":-11.733404,
    "source":"DPPI",
    "source_geo":"Village Center",
    "dhis2_id":"COPscajpw9o",
    "geo_date":2021,
    "comments":" ",
    "x":-11.7334039998,
    "y":7.9425319996
  },
  {
    "FID":68,
    "district":"Bo",
    "community":"Kendeyama",
    "facility":"Mamasa Life Saving Hospital",
    "fac_name":"Mamasa Life Saving",
    "type":"HOSPITAL",
    "ownership":"Private",
    "functional":"Functional",
    "lat":7.942732,
    "long":-11.710874,
    "source":"DPPI",
    "source_geo":"GPS",
    "dhis2_id":"No Data",
    "geo_date":2021,
    "comments":" ",
    "x":-11.7108740004,
    "y":7.9427319998
  },
  {
    "FID":69,
    "district":"Bo",
    "community":"Bandajuma",
    "facility":"Bandajuma MCHP",
    "fac_name":"Bandajuma",
    "type":"MCHP",
    "ownership":"Government",
    "functional":"Functional",
    "lat":7.942878,
    "long":-11.666293,
    "source":"DPPI",
    "source_geo":"GPS",
    "dhis2_id":"tvBrm8tNhGy",
    "geo_date":2016,
    "comments":" ",
    "x":-11.6662930004,
    "y":7.9428780002
  },
  {
    "FID":70,
    "district":"Bo",
    "community":"Mattru On The Rail",
    "facility":"Mattru On The Rail CHP",
    "fac_name":"Mattru On The Rail",
    "type":"CHP",
    "ownership":"Government",
    "functional":"Functional",
    "lat":7.9431,
    "long":-11.7884,
    "source":"WHO",
    "source_geo":"GPS",
    "dhis2_id":"Q0CpslhFL8F",
    "geo_date":2019,
    "comments":" ",
    "x":-11.7883999999,
    "y":7.9430999997
  },
  {
    "FID":71,
    "district":"Bo",
    "community":"Gbondo Town",
    "facility":"Favour MCHP",
    "fac_name":"Favour",
    "type":"MCHP",
    "ownership":"Private",
    "functional":"Functional",
    "lat":7.94335,
    "long":-11.71983,
    "source":"DPPI",
    "source_geo":"GPS",
    "dhis2_id":"GVAOzCFjCHP",
    "geo_date":2016,
    "comments":" ",
    "x":-11.7198299998,
    "y":7.9433500004
  },
  {
    "FID":72,
    "district":"Bo",
    "community":"Johnny st. shelmingo",
    "facility":"Nafaya MCHP",
    "fac_name":"Nafaya",
    "type":"MCHP",
    "ownership":"Private",
    "functional":"Functional",
    "lat":7.943603,
    "long":-11.73142,
    "source":"FMFL",
    "source_geo":"GPS",
    "dhis2_id":"aRhodREBRmP",
    "geo_date":2015,
    "comments":" ",
    "x":-11.73142,
    "y":7.9436030004
  },
  {
    "FID":73,
    "district":"Bo",
    "community":"Kenedy Musa street",
    "facility":"Agape Way CHP",
    "fac_name":"Agape Way",
    "type":"CHP",
    "ownership":"Faith Based",
    "functional":"Functional",
    "lat":7.946333,
    "long":-11.73599,
    "source":"DPPI",
    "source_geo":"GPS",
    "dhis2_id":"r7HlpPKHfWW",
    "geo_date":2016,
    "comments":" ",
    "x":-11.7359900003,
    "y":7.9463330004
  },
  {
    "FID":74,
    "district":"Bo",
    "community":"Tengbewabu",
    "facility":"Tengbewabu MCHP",
    "fac_name":"Tengbewabu",
    "type":"MCHP",
    "ownership":"Private",
    "functional":"Functional",
    "lat":7.947173,
    "long":-11.72149,
    "source":"DPPI",
    "source_geo":"GPS",
    "dhis2_id":"SGR2i1KjYGA",
    "geo_date":2016,
    "comments":" ",
    "x":-11.7214899999,
    "y":7.9471730004
  },
  {
    "FID":75,
    "district":"Bo",
    "community":"Kandeh Town",
    "facility":"Kandeh Town CHP",
    "fac_name":"Kandeh Town",
    "type":"CHP",
    "ownership":"Private",
    "functional":"Functional",
    "lat":7.947479,
    "long":-11.75322,
    "source":"DPPI",
    "source_geo":"GPS",
    "dhis2_id":"QhmFZjy9z6C",
    "geo_date":2016,
    "comments":" ",
    "x":-11.7532199999,
    "y":7.9474790002
  },
  {
    "FID":76,
    "district":"Bo",
    "community":"Niagorehun Community",
    "facility":"M. M. Maternity MCHP",
    "fac_name":"M. M. Maternity",
    "type":"MCHP",
    "ownership":"Private",
    "functional":"Functional",
    "lat":7.948544,
    "long":-11.705024,
    "source":"DPPI",
    "source_geo":"GPS",
    "dhis2_id":"RTTv7rDqnt7",
    "geo_date":2016,
    "comments":" ",
    "x":-11.7050239996,
    "y":7.9485439998
  },
  {
    "FID":77,
    "district":"Bo",
    "community":"Blamawo",
    "facility":"Blamawo MCHP",
    "fac_name":"Blamawo",
    "type":"MCHP",
    "ownership":"Government",
    "functional":"Functional",
    "lat":7.949765,
    "long":-11.52217,
    "source":"DPPI",
    "source_geo":"GPS",
    "dhis2_id":"fcupedn79pQ",
    "geo_date":2016,
    "comments":" ",
    "x":-11.5221700001,
    "y":7.9497650004
  },
  {
    "FID":78,
    "district":"Bo",
    "community":"Ngolahun",
    "facility":"Ngolahun CHP",
    "fac_name":"Ngolahun",
    "type":"CHP",
    "ownership":"Government",
    "functional":"Functional",
    "lat":7.950019,
    "long":-12.12574,
    "source":"SARA",
    "source_geo":"GPS",
    "dhis2_id":"tVsmCUVfEjo",
    "geo_date":2017,
    "comments":" ",
    "x":-12.1257399999,
    "y":7.9500190004
  },
  {
    "FID":79,
    "district":"Bo",
    "community":"Kowama",
    "facility":"Teaching Health Center Kowama Njala University",
    "fac_name":"Teaching Health Center - Kowama Njala University",
    "type":"CHC",
    "ownership":"NGO",
    "functional":"Functional",
    "lat":7.950072,
    "long":-11.74846,
    "source":"DPPI",
    "source_geo":"GPS",
    "dhis2_id":"yTNr9FhoH9R",
    "geo_date":2016,
    "comments":" ",
    "x":-11.7484599998,
    "y":7.9500720001
  },
  {
    "FID":80,
    "district":"Bo",
    "community":"Messima",
    "facility":"Needy CHC",
    "fac_name":"Needy",
    "type":"CHC",
    "ownership":"Private",
    "functional":"Functional",
    "lat":7.950093,
    "long":-11.724,
    "source":"DPPI",
    "source_geo":"GPS",
    "dhis2_id":"zYdxdQdN4xN",
    "geo_date":2016,
    "comments":" ",
    "x":-11.7239999996,
    "y":7.9500930002
  },
  {
    "FID":81,
    "district":"Bo",
    "community":"Mosamai - Hanson Road",
    "facility":"We Care CHP",
    "fac_name":"We Care",
    "type":"CHP",
    "ownership":"Private",
    "functional":"Functional",
    "lat":7.95018,
    "long":-11.769061,
    "source":"DPPI",
    "source_geo":"GPS",
    "dhis2_id":"fkxcG28sDlQ",
    "geo_date":2021,
    "comments":" ",
    "x":-11.7690610002,
    "y":7.9501799997
  },
  {
    "FID":82,
    "district":"Bo",
    "community":"New Police Barracks",
    "facility":"New Police Barracks CHC",
    "fac_name":"New Police Barracks",
    "type":"CHC",
    "ownership":"Government",
    "functional":"Functional",
    "lat":7.950442,
    "long":-11.71717,
    "source":"DPPI",
    "source_geo":"GPS",
    "dhis2_id":"X5KxV3braEy",
    "geo_date":2016,
    "comments":" ",
    "x":-11.7171700003,
    "y":7.9504420001
  },
  {
    "FID":83,
    "district":"Bo",
    "community":"176 Bo -Tiama Highway",
    "facility":"Walk In Medical Associate Clinic",
    "fac_name":"Walk In Medical Associate",
    "type":"CLINIC",
    "ownership":"Private",
    "functional":"Functional",
    "lat":7.952076,
    "long":-11.749749,
    "source":"DPPI",
    "source_geo":"GPS",
    "dhis2_id":"No Data",
    "geo_date":2021,
    "comments":" ",
    "x":-11.7497489999,
    "y":7.9520759999
  },
  {
    "FID":84,
    "district":"Bo",
    "community":"Towama Junction",
    "facility":"Rescue Health Care Clinic",
    "fac_name":"Rescue Health Care",
    "type":"CLINIC",
    "ownership":"Private",
    "functional":"Functional",
    "lat":7.95209,
    "long":-11.752301,
    "source":"DPPI",
    "source_geo":"GPS",
    "dhis2_id":"Qf8Y8e5Nzby",
    "geo_date":2021,
    "comments":" ",
    "x":-11.7523009998,
    "y":7.9520899997
  },
  {
    "FID":85,
    "district":"Bo",
    "community":"Sewa Road A. Line",
    "facility":"Morning Star CHP",
    "fac_name":"Morning Star",
    "type":"CHP",
    "ownership":"Faith Based",
    "functional":"Functional",
    "lat":7.952147,
    "long":-11.73199,
    "source":"DPPI",
    "source_geo":"GPS",
    "dhis2_id":"DbOpC8zLhh1",
    "geo_date":2016,
    "comments":" ",
    "x":-11.7319900002,
    "y":7.9521469996
  },
  {
    "FID":86,
    "district":"Bo",
    "community":"Torkpoi Town",
    "facility":"Torkpoi Town CHC",
    "fac_name":"Torkpoi Town",
    "type":"CHC",
    "ownership":"Government",
    "functional":"Functional",
    "lat":7.953394,
    "long":-11.716334,
    "source":"DPPI",
    "source_geo":"GPS",
    "dhis2_id":"TSJLGxhZDe7",
    "geo_date":2021,
    "comments":" ",
    "x":-11.7163340004,
    "y":7.9533940004
  },
  {
    "FID":87,
    "district":"Bo",
    "community":"Njagbla",
    "facility":"Theresa Hakim CHP",
    "fac_name":"Theresa Hakim",
    "type":"CHP",
    "ownership":"Private",
    "functional":"Functional",
    "lat":7.955019,
    "long":-11.774088,
    "source":"DPPI",
    "source_geo":"GPS",
    "dhis2_id":"aDT30LXiKa3",
    "geo_date":2021,
    "comments":" ",
    "x":-11.774088,
    "y":7.9550189998
  },
  {
    "FID":88,
    "district":"Bo",
    "community":"Fullawahun",
    "facility":"Fullawahun MCHP",
    "fac_name":"Fullawahun",
    "type":"MCHP",
    "ownership":"Private",
    "functional":"Functional",
    "lat":7.956178,
    "long":-11.76071,
    "source":"DPPI",
    "source_geo":"Village Center",
    "dhis2_id":"nL0LlQ7yC3Q",
    "geo_date":2021,
    "comments":" ",
    "x":-11.76071,
    "y":7.9561780002
  },
  {
    "FID":89,
    "district":"Bo",
    "community":"Fagoya, Gerehun Road",
    "facility":"Unimus MCHP",
    "fac_name":"Unimus",
    "type":"MCHP",
    "ownership":"Private",
    "functional":"Functional",
    "lat":7.956979,
    "long":-11.72112,
    "source":"DPPI",
    "source_geo":"GPS",
    "dhis2_id":"R9kmRwOvmY0",
    "geo_date":2016,
    "comments":" ",
    "x":-11.7211199999,
    "y":7.9569790003
  },
  {
    "FID":90,
    "district":"Bo",
    "community":"Fullawahun Section",
    "facility":"Lyn's Maternity CHC",
    "fac_name":"Lyn's Maternity",
    "type":"CHC",
    "ownership":"Private",
    "functional":"Functional",
    "lat":7.958382,
    "long":-11.75899,
    "source":"DPPI",
    "source_geo":"GPS",
    "dhis2_id":"PCdZzUna8ag",
    "geo_date":2016,
    "comments":" ",
    "x":-11.7589899998,
    "y":7.9583820002
  },
  {
    "FID":91,
    "district":"Bo",
    "community":"Coronation Field",
    "facility":"Serra Leone Red Cross Society  CHC",
    "fac_name":"Serra Leone Red Cross Society",
    "type":"CHC",
    "ownership":"Faith Based",
    "functional":"Functional",
    "lat":7.958705,
    "long":-11.741862,
    "source":"DPPI",
    "source_geo":"GPS",
    "dhis2_id":"No Data",
    "geo_date":2021,
    "comments":" ",
    "x":-11.7418620004,
    "y":7.9587049998
  },
  {
    "FID":92,
    "district":"Bo",
    "community":"Clock Tower",
    "facility":"Kindoya Hospital",
    "fac_name":"Kindoya",
    "type":"HOSPITAL",
    "ownership":"Private",
    "functional":"Functional",
    "lat":7.959823,
    "long":-11.739153,
    "source":"DPPI",
    "source_geo":"GPS",
    "dhis2_id":"osLV6D0TBTr",
    "geo_date":2021,
    "comments":" ",
    "x":-11.7391529996,
    "y":7.9598230001
  },
  {
    "FID":93,
    "district":"Bo",
    "community":"Bo Govt Secondary School Compound",
    "facility":"Bo School Sick Bay",
    "fac_name":"Bo School Sick Bay",
    "type":"CLINIC",
    "ownership":"Government",
    "functional":"Functional",
    "lat":7.962361,
    "long":-11.743268,
    "source":"DPPI",
    "source_geo":"GPS",
    "dhis2_id":"No Data",
    "geo_date":2021,
    "comments":" ",
    "x":-11.7432679996,
    "y":7.9623610003
  },
  {
    "FID":94,
    "district":"Bo",
    "community":"Brima Town",
    "facility":"Brima Town CHP",
    "fac_name":"Brima Town",
    "type":"CHP",
    "ownership":"Government",
    "functional":"Functional",
    "lat":7.962541,
    "long":-11.75588,
    "source":"DPPI",
    "source_geo":"GPS",
    "dhis2_id":"sVcW6ULu9jl",
    "geo_date":2016,
    "comments":" ",
    "x":-11.7558800003,
    "y":7.9625409996
  },
  {
    "FID":95,
    "district":"Bo",
    "community":"BO DHMT COMPOUND",
    "facility":"Edc Unit CHP",
    "fac_name":"Edc Unit",
    "type":"CHP",
    "ownership":"Government",
    "functional":"Functional",
    "lat":7.96374,
    "long":-11.74657,
    "source":"DPPI",
    "source_geo":"GPS",
    "dhis2_id":"irWqaop88lY",
    "geo_date":2016,
    "comments":" ",
    "x":-11.7465699999,
    "y":7.96374
  },
  {
    "FID":96,
    "district":"Bo",
    "community":"Bo Government Hospital Compound",
    "facility":"Bo Government Hospital",
    "fac_name":"Bo Government",
    "type":"HOSPITAL",
    "ownership":"Government",
    "functional":"Functional",
    "lat":7.964121,
    "long":-11.74282,
    "source":"DPPI",
    "source_geo":"GPS",
    "dhis2_id":"YlNHvcYybsg",
    "geo_date":2016,
    "comments":" ",
    "x":-11.7428199996,
    "y":7.9641209996
  },
  {
    "FID":97,
    "district":"Bo",
    "community":"Yemoh Town",
    "facility":"Yemoh Town CHC",
    "fac_name":"Yemoh Town",
    "type":"CHC",
    "ownership":"Government",
    "functional":"Functional",
    "lat":7.964121,
    "long":-11.723311,
    "source":"DPPI",
    "source_geo":"GPS",
    "dhis2_id":"fmffr8K9TD3",
    "geo_date":2016,
    "comments":" ",
    "x":-11.7233110002,
    "y":7.9641209996
  },
  {
    "FID":98,
    "district":"Bo",
    "community":"Bo Govt hospital Compound",
    "facility":"Mch Static CHC",
    "fac_name":"Mch Static",
    "type":"CHC",
    "ownership":"Government",
    "functional":"Functional",
    "lat":7.964277,
    "long":-11.743711,
    "source":"DPPI",
    "source_geo":"GPS",
    "dhis2_id":"VaI9khTIB29",
    "geo_date":2021,
    "comments":" ",
    "x":-11.7437110003,
    "y":7.9642769996
  },
  {
    "FID":99,
    "district":"Bo",
    "community":"Kagbiama",
    "facility":"Kagbiama MCHP",
    "fac_name":"Kagbiama",
    "type":"MCHP",
    "ownership":"Government",
    "functional":"Functional",
    "lat":7.964405,
    "long":-12.086616,
    "source":"DPPI",
    "source_geo":"GPS",
    "dhis2_id":"RY4IrycKB1V",
    "geo_date":2021,
    "comments":" ",
    "x":-12.0866159997,
    "y":7.9644050001
  },
  {
    "FID":100,
    "district":"Bo",
    "community":"No.1 Mission Road",
    "facility":"Spllenz Clinic",
    "fac_name":"Spllenz",
    "type":"CLINIC",
    "ownership":"Private",
    "functional":"Functional",
    "lat":7.964535,
    "long":-11.741767,
    "source":"DPPI",
    "source_geo":"GPS",
    "dhis2_id":"No Data",
    "geo_date":2021,
    "comments":" ",
    "x":-11.7417669996,
    "y":7.9645349998
  },
  {
    "FID":101,
    "district":"Bo",
    "community":"Hanga Town",
    "facility":"Praise Foundation CHC",
    "fac_name":"Praise Foundation",
    "type":"CHC",
    "ownership":"Faith Based",
    "functional":"Functional",
    "lat":7.965481,
    "long":-11.7404,
    "source":"DPPI",
    "source_geo":"GPS",
    "dhis2_id":"oAGhdT4TmS2",
    "geo_date":2016,
    "comments":" ",
    "x":-11.7403999996,
    "y":7.9654810002
  },
  {
    "FID":102,
    "district":"Bo",
    "community":"Mid Land",
    "facility":"Mid Land MCHP",
    "fac_name":"Mid Land",
    "type":"MCHP",
    "ownership":"Government",
    "functional":"Functional",
    "lat":7.966999,
    "long":-11.76844,
    "source":"DPPI",
    "source_geo":"GPS",
    "dhis2_id":"QRZaNrI0vPN",
    "geo_date":2016,
    "comments":" ",
    "x":-11.7684400003,
    "y":7.9669990001
  },
  {
    "FID":103,
    "district":"Bo",
    "community":"Niagorehun Vakie",
    "facility":"Niagorehun Vakie MCHP",
    "fac_name":"Niagorehun Vakie",
    "type":"MCHP",
    "ownership":"Government",
    "functional":"Functional",
    "lat":7.968416,
    "long":-12.02632,
    "source":"DPPI",
    "source_geo":"GPS",
    "dhis2_id":"p8APIHe5Ujm",
    "geo_date":2021,
    "comments":" ",
    "x":-12.0263199999,
    "y":7.9684159998
  },
  {
    "FID":104,
    "district":"Bo",
    "community":"Lewabu",
    "facility":"Lewabu CHP",
    "fac_name":"Lewabu",
    "type":"CHP",
    "ownership":"Private",
    "functional":"Functional",
    "lat":7.942762717,
    "long":-11.740360829,
    "source":"DPPI",
    "source_geo":"GPS",
    "dhis2_id":"RGpyGn882qm",
    "geo_date":2021,
    "comments":"Requires Validation\/Ground truthing",
    "x":-11.7403608287,
    "y":7.942762717
  },
  {
    "FID":105,
    "district":"Bo",
    "community":"Kebbie Town",
    "facility":"Ndegbomie MCHP",
    "fac_name":"Ndegbomie",
    "type":"MCHP",
    "ownership":"Private",
    "functional":"Functional",
    "lat":7.969825,
    "long":-11.76138,
    "source":"DPPI",
    "source_geo":"GPS",
    "dhis2_id":"c1netFCKWF2",
    "geo_date":2016,
    "comments":" ",
    "x":-11.7613800003,
    "y":7.969825
  },
  {
    "FID":106,
    "district":"Bo",
    "community":"Gobba Town",
    "facility":"Gilas Hospital",
    "fac_name":"Gilas",
    "type":"HOSPITAL",
    "ownership":"NGO",
    "functional":"Functional",
    "lat":7.970994,
    "long":-11.742262,
    "source":"DPPI",
    "source_geo":"GPS",
    "dhis2_id":"bCpDmnHKnMs",
    "geo_date":2021,
    "comments":" ",
    "x":-11.742262,
    "y":7.970994
  },
  {
    "FID":107,
    "district":"Bo",
    "community":"BO NO. 2 SECTION",
    "facility":"Gbortima CHC",
    "fac_name":"Gbortima",
    "type":"CHC",
    "ownership":"Government",
    "functional":"Functional",
    "lat":7.971836,
    "long":-11.72931,
    "source":"DPPI",
    "source_geo":"GPS",
    "dhis2_id":"q5lV1qv1juw",
    "geo_date":2016,
    "comments":" ",
    "x":-11.7293099999,
    "y":7.9718360001
  },
  {
    "FID":108,
    "district":"Bo",
    "community":"Batiama Layout",
    "facility":"Batiama Layout MCHP",
    "fac_name":"Batiama Layout",
    "type":"MCHP",
    "ownership":"Government",
    "functional":"Functional",
    "lat":7.972395,
    "long":-11.71599,
    "source":"DPPI",
    "source_geo":"GPS",
    "dhis2_id":"TCe2cuj5G1U",
    "geo_date":2016,
    "comments":" ",
    "x":-11.7159899998,
    "y":7.9723949998
  },
  {
    "FID":109,
    "district":"Bo",
    "community":"Kpumbu",
    "facility":"Kpumbu MCHP",
    "fac_name":"Kpumbu",
    "type":"MCHP",
    "ownership":"Government",
    "functional":"Functional",
    "lat":7.973496,
    "long":-11.48799,
    "source":"DPPI",
    "source_geo":"GPS",
    "dhis2_id":"S60m1IYSJE3",
    "geo_date":2021,
    "comments":" ",
    "x":-11.4879900004,
    "y":7.9734960002
  },
  {
    "FID":110,
    "district":"Bo",
    "community":"Foindu",
    "facility":"Foindu MCHP",
    "fac_name":"Foindu",
    "type":"MCHP",
    "ownership":"Government",
    "functional":"Functional",
    "lat":7.974384,
    "long":-11.39449,
    "source":"SARA",
    "source_geo":"GPS",
    "dhis2_id":"JUJPn9mKhP6",
    "geo_date":2017,
    "comments":" ",
    "x":-11.39449,
    "y":7.9743839998
  },
  {
    "FID":111,
    "district":"Bo",
    "community":"Kulanda Town",
    "facility":"Mercy UMC Hospital",
    "fac_name":"Mercy UMC",
    "type":"HOSPITAL",
    "ownership":"Faith Based",
    "functional":"Functional",
    "lat":7.976754,
    "long":-11.73729,
    "source":"SARA",
    "source_geo":"GPS",
    "dhis2_id":"Jx5dl3Fn9Fi",
    "geo_date":2017,
    "comments":" ",
    "x":-11.73729,
    "y":7.9767540003
  },
  {
    "FID":112,
    "district":"Bo",
    "community":"Tobu Section- Bojon street",
    "facility":"Egyptian Clinic",
    "fac_name":"Egyptian",
    "type":"CLINIC",
    "ownership":"Private",
    "functional":"Functional",
    "lat":7.976855,
    "long":-11.671254,
    "source":"DPPI",
    "source_geo":"GPS",
    "dhis2_id":"Wodb8F52Q66",
    "geo_date":2022,
    "comments":" ",
    "x":-11.6712539999,
    "y":7.9768549996
  },
  {
    "FID":113,
    "district":"Bo",
    "community":"Simbo Town",
    "facility":"Simbo Town CHP",
    "fac_name":"Simbo Town",
    "type":"CHP",
    "ownership":"Private",
    "functional":"Functional",
    "lat":7.977519,
    "long":-11.74051,
    "source":"DPPI",
    "source_geo":"GPS",
    "dhis2_id":"T36lkmOhEbL",
    "geo_date":2016,
    "comments":" ",
    "x":-11.7405100001,
    "y":7.9775189996
  },
  {
    "FID":114,
    "district":"Bo",
    "community":"Fengehun",
    "facility":"Fengehun CHP",
    "fac_name":"Fengehun",
    "type":"CHP",
    "ownership":"Government",
    "functional":"Functional",
    "lat":7.97766,
    "long":-11.5935,
    "source":"DPPI",
    "source_geo":"GPS",
    "dhis2_id":"uSb2BXWaKAE",
    "geo_date":2016,
    "comments":" ",
    "x":-11.5934999998,
    "y":7.9776599998
  },
  {
    "FID":115,
    "district":"Bo",
    "community":"Nduvuibu",
    "facility":"Nduvuibu MCHP",
    "fac_name":"Nduvuibu",
    "type":"MCHP",
    "ownership":"Government",
    "functional":"Functional",
    "lat":7.982395,
    "long":-11.72929,
    "source":"DPPI",
    "source_geo":"GPS",
    "dhis2_id":"Ar8MZ5E4LAi",
    "geo_date":2016,
    "comments":" ",
    "x":-11.7292899998,
    "y":7.9823949996
  },
  {
    "FID":116,
    "district":"Bo",
    "community":"Bandawa Community",
    "facility":"Zion CHC",
    "fac_name":"Zion",
    "type":"CHC",
    "ownership":"Faith Based",
    "functional":"Functional",
    "lat":7.987181,
    "long":-11.79855,
    "source":"SARA",
    "source_geo":"GPS",
    "dhis2_id":"IgJiHP4PTT6",
    "geo_date":2017,
    "comments":" ",
    "x":-11.7985500003,
    "y":7.987181
  },
  {
    "FID":117,
    "district":"Bo",
    "community":"Geoma 2 Layout",
    "facility":"Bo Children's Hospital",
    "fac_name":"Bo Children's",
    "type":"HOSPITAL",
    "ownership":"Private",
    "functional":"Functional",
    "lat":7.987973,
    "long":-11.76477,
    "source":"SARA",
    "source_geo":"GPS",
    "dhis2_id":"YnuW2z7qnpp",
    "geo_date":2017,
    "comments":" ",
    "x":-11.7647700001,
    "y":7.9879729997
  },
  {
    "FID":118,
    "district":"Bo",
    "community":"Yemoh Town",
    "facility":"Gender CHP",
    "fac_name":"Gender",
    "type":"CHP",
    "ownership":"Private",
    "functional":"Functional",
    "lat":7.989605,
    "long":-11.743525,
    "source":"DPPI",
    "source_geo":"GPS",
    "dhis2_id":"No Data",
    "geo_date":2021,
    "comments":" ",
    "x":-11.7435249998,
    "y":7.9896050003
  },
  {
    "FID":119,
    "district":"Bo",
    "community":"Gbanja Town",
    "facility":"Gbanja Town MCHP",
    "fac_name":"Gbanja Town",
    "type":"MCHP",
    "ownership":"Private",
    "functional":"Functional",
    "lat":7.98964,
    "long":-11.74344,
    "source":"DPPI",
    "source_geo":"GPS",
    "dhis2_id":"Qp8GIbUFzlS",
    "geo_date":2016,
    "comments":" ",
    "x":-11.7434400004,
    "y":7.9896400001
  },
  {
    "FID":120,
    "district":"Bo",
    "community":"Sembehun Mamagewoh",
    "facility":"Sembehun Mamagewoh MCHP",
    "fac_name":"Sembehun Mamagewoh",
    "type":"MCHP",
    "ownership":"Government",
    "functional":"Functional",
    "lat":7.992544,
    "long":-11.868325,
    "source":"DPPI",
    "source_geo":"GPS",
    "dhis2_id":"QbXGub6urCp",
    "geo_date":2016,
    "comments":" ",
    "x":-11.8683250002,
    "y":7.992544
  },
  {
    "FID":121,
    "district":"Bo",
    "community":"Kpetema Bagbwe",
    "facility":"Kpetema MCHP",
    "fac_name":"Kpetema",
    "type":"MCHP",
    "ownership":"Government",
    "functional":"Functional",
    "lat":7.996925,
    "long":-11.49736,
    "source":"DPPI",
    "source_geo":"GPS",
    "dhis2_id":"xTdypwiMOGF",
    "geo_date":2021,
    "comments":" ",
    "x":-11.49736,
    "y":7.9969249997
  },
  {
    "FID":122,
    "district":"Bo",
    "community":"Yakaji",
    "facility":"Yakaji MCHP",
    "fac_name":"Yakaji",
    "type":"MCHP",
    "ownership":"Government",
    "functional":"Functional",
    "lat":8.00429,
    "long":-11.4277,
    "source":"DPPI",
    "source_geo":"GPS",
    "dhis2_id":"rVXVZ0q1RYR",
    "geo_date":2016,
    "comments":" ",
    "x":-11.4277,
    "y":8.0042900003
  },
  {
    "FID":123,
    "district":"Bo",
    "community":"Manjama",
    "facility":"Manjama CHC",
    "fac_name":"Manjama",
    "type":"CHC",
    "ownership":"Faith Based",
    "functional":"Functional",
    "lat":8.014636,
    "long":-11.728783,
    "source":"DPPI",
    "source_geo":"GPS",
    "dhis2_id":"f0bNYnAN8Yf",
    "geo_date":2016,
    "comments":" ",
    "x":-11.7287829998,
    "y":8.0146359999
  },
  {
    "FID":124,
    "district":"Bo",
    "community":"Manguama",
    "facility":"Manguama CHP",
    "fac_name":"Manguama",
    "type":"CHP",
    "ownership":"Government",
    "functional":"Functional",
    "lat":8.014699,
    "long":-11.67608,
    "source":"DPPI",
    "source_geo":"GPS",
    "dhis2_id":"z3IMjLusLZp",
    "geo_date":2016,
    "comments":" ",
    "x":-11.6760800003,
    "y":8.0146990001
  },
  {
    "FID":125,
    "district":"Bo",
    "community":"Barlie",
    "facility":"Barlie MCHP",
    "fac_name":"Barlie",
    "type":"MCHP",
    "ownership":"Government",
    "functional":"Functional",
    "lat":8.019674,
    "long":-11.58555,
    "source":"DPPI",
    "source_geo":"GPS",
    "dhis2_id":"qfAwRcPo8Vi",
    "geo_date":2016,
    "comments":" ",
    "x":-11.5855500001,
    "y":8.0196740002
  },
  {
    "FID":126,
    "district":"Bo",
    "community":"Benduma",
    "facility":"Benduma MCHP",
    "fac_name":"Benduma",
    "type":"MCHP",
    "ownership":"Government",
    "functional":"Functional",
    "lat":8.026164,
    "long":-11.52166,
    "source":"DPPI",
    "source_geo":"GPS",
    "dhis2_id":"d5Y98HRfVpE",
    "geo_date":2016,
    "comments":" ",
    "x":-11.52166,
    "y":8.026164
  },
  {
    "FID":127,
    "district":"Bo",
    "community":"Gbongboma",
    "facility":"Gbongboma MCHP",
    "fac_name":"Gbongboma",
    "type":"MCHP",
    "ownership":"Government",
    "functional":"Functional",
    "lat":8.030665,
    "long":-11.78595,
    "source":"DPPI",
    "source_geo":"GPS",
    "dhis2_id":"pzgD4T1GdAD",
    "geo_date":2016,
    "comments":" ",
    "x":-11.7859500002,
    "y":8.0306649998
  },
  {
    "FID":128,
    "district":"Bo",
    "community":"Njandama",
    "facility":"Njandama MCHP",
    "fac_name":"Njandama",
    "type":"MCHP",
    "ownership":"Government",
    "functional":"Functional",
    "lat":8.039634,
    "long":-11.4495,
    "source":"DPPI",
    "source_geo":"GPS",
    "dhis2_id":"DxaAN6sPx2T",
    "geo_date":2016,
    "comments":" ",
    "x":-11.4494999998,
    "y":8.0396339997
  },
  {
    "FID":129,
    "district":"Bo",
    "community":"Gbahama",
    "facility":"Gbahama CHP",
    "fac_name":"Gbahama",
    "type":"CHP",
    "ownership":"Government",
    "functional":"Functional",
    "lat":8.04049,
    "long":-11.3413,
    "source":"SARA",
    "source_geo":"GPS",
    "dhis2_id":"rqEpgrtV1km",
    "geo_date":2017,
    "comments":" ",
    "x":-11.3412999996,
    "y":8.0404899996
  },
  {
    "FID":130,
    "district":"Bo",
    "community":"Kondiama",
    "facility":"Kondiama MCHP",
    "fac_name":"Kondiama",
    "type":"MCHP",
    "ownership":"Government",
    "functional":"Functional",
    "lat":8.055515,
    "long":-11.49763,
    "source":"DPPI",
    "source_geo":"GPS",
    "dhis2_id":"GCTsijyk3iX",
    "geo_date":2016,
    "comments":" ",
    "x":-11.4976299998,
    "y":8.055515
  },
  {
    "FID":131,
    "district":"Bo",
    "community":"Pendebu",
    "facility":"Pendebu MCHP",
    "fac_name":"Pendebu",
    "type":"MCHP",
    "ownership":"Government",
    "functional":"Functional",
    "lat":8.057394,
    "long":-11.613696,
    "source":"DPPI",
    "source_geo":"GPS",
    "dhis2_id":"mL9k9sTblQI",
    "geo_date":2021,
    "comments":" ",
    "x":-11.6136960004,
    "y":8.0573940003
  },
  {
    "FID":132,
    "district":"Bo",
    "community":"Korbu",
    "facility":"Korbu MCHP",
    "fac_name":"Korbu",
    "type":"MCHP",
    "ownership":"Government",
    "functional":"Functional",
    "lat":8.06611,
    "long":-11.67523,
    "source":"DPPI",
    "source_geo":"GPS",
    "dhis2_id":"irL0T794R4V",
    "geo_date":2016,
    "comments":" ",
    "x":-11.6752299998,
    "y":8.0661100003
  },
  {
    "FID":133,
    "district":"Bo",
    "community":"Samie Buma",
    "facility":"Samie Buma MCHP",
    "fac_name":"Samie Buma",
    "type":"MCHP",
    "ownership":"Government",
    "functional":"Functional",
    "lat":8.078658,
    "long":-11.51992,
    "source":"SARA",
    "source_geo":"GPS",
    "dhis2_id":"d12uaj9l1cZ",
    "geo_date":2017,
    "comments":" ",
    "x":-11.5199199998,
    "y":8.0786579998
  },
  {
    "FID":134,
    "district":"Bo",
    "community":"Ngelehun",
    "facility":"Ngelehun CHC",
    "fac_name":"Ngelehun",
    "type":"CHC",
    "ownership":"Government",
    "functional":"Functional",
    "lat":8.103755,
    "long":-11.42019,
    "source":"DPPI",
    "source_geo":"GPS",
    "dhis2_id":"rvphgxdAUQw",
    "geo_date":2016,
    "comments":" ",
    "x":-11.4201899999,
    "y":8.1037549997
  },
  {
    "FID":135,
    "district":"Bo",
    "community":"Ngalu",
    "facility":"Ngalu CHC",
    "fac_name":"Ngalu",
    "type":"CHC",
    "ownership":"Government",
    "functional":"Functional",
    "lat":8.10752,
    "long":-11.55735,
    "source":"DPPI",
    "source_geo":"GPS",
    "dhis2_id":"yVSrSeEqEW4",
    "geo_date":2016,
    "comments":" ",
    "x":-11.5573500001,
    "y":8.1075199997
  },
  {
    "FID":136,
    "district":"Bo",
    "community":"Gbaiima",
    "facility":"Gbaiima CHC",
    "fac_name":"Gbaiima",
    "type":"CHC",
    "ownership":"Government",
    "functional":"Functional",
    "lat":8.109473,
    "long":-11.8492,
    "source":"DPPI",
    "source_geo":"GPS",
    "dhis2_id":"xddkjfAwqmL",
    "geo_date":2016,
    "comments":" ",
    "x":-11.8491999996,
    "y":8.1094729999
  },
  {
    "FID":137,
    "district":"Bo",
    "community":"Dambala",
    "facility":"Damballa CHC",
    "fac_name":"Damballa",
    "type":"CHC",
    "ownership":"Government",
    "functional":"Functional",
    "lat":8.120852,
    "long":-11.703633,
    "source":"FMFL",
    "source_geo":"GPS",
    "dhis2_id":"T0Hx20wwR7A",
    "geo_date":2015,
    "comments":" ",
    "x":-11.7036330002,
    "y":8.1208520003
  },
  {
    "FID":138,
    "district":"Bo",
    "community":"Gbangba",
    "facility":"Gbangba MCHP",
    "fac_name":"Gbangba",
    "type":"MCHP",
    "ownership":"Government",
    "functional":"Functional",
    "lat":8.121512,
    "long":-11.75741,
    "source":"DPPI",
    "source_geo":"GPS",
    "dhis2_id":"d6CexIzE4ha",
    "geo_date":2016,
    "comments":" ",
    "x":-11.7574099998,
    "y":8.1215120002
  },
  {
    "FID":139,
    "district":"Bo",
    "community":"Nengbema",
    "facility":"Nengbema CHP",
    "fac_name":"Nengbema",
    "type":"CHP",
    "ownership":"Government",
    "functional":"Functional",
    "lat":8.127103,
    "long":-11.65287,
    "source":"DPPI",
    "source_geo":"GPS",
    "dhis2_id":"LMuEMW6zZep",
    "geo_date":2016,
    "comments":" ",
    "x":-11.6528700002,
    "y":8.1271029999
  },
  {
    "FID":140,
    "district":"Bo",
    "community":"Njagbahun",
    "facility":"Njagbahun MCHP",
    "fac_name":"Njagbahun",
    "type":"MCHP",
    "ownership":"Government",
    "functional":"Functional",
    "lat":8.149696,
    "long":-11.433995,
    "source":"DPPI",
    "source_geo":"GPS",
    "dhis2_id":"LbDamdJ2rm9",
    "geo_date":2021,
    "comments":" ",
    "x":-11.4339949998,
    "y":8.1496960004
  },
  {
    "FID":141,
    "district":"Bo",
    "community":"Sahn",
    "facility":"Sahn CHC",
    "fac_name":"Sahn",
    "type":"CHC",
    "ownership":"Government",
    "functional":"Functional",
    "lat":8.15813,
    "long":-11.59803,
    "source":"DPPI",
    "source_geo":"GPS",
    "dhis2_id":"NpjqmBn5SfE",
    "geo_date":2016,
    "comments":" ",
    "x":-11.5980300001,
    "y":8.1581299999
  },
  {
    "FID":142,
    "district":"Bo",
    "community":"Mendewa Bagbwe",
    "facility":"Mendewa MCHP",
    "fac_name":"Mendewa",
    "type":"MCHP",
    "ownership":"Government",
    "functional":"Functional",
    "lat":8.161407,
    "long":-11.48382,
    "source":"DPPI",
    "source_geo":"GPS",
    "dhis2_id":"D8lcGSR5Fc1",
    "geo_date":2016,
    "comments":" ",
    "x":-11.4838199997,
    "y":8.1614069999
  },
  {
    "FID":143,
    "district":"Bo",
    "community":"Njala",
    "facility":"Njala CHC",
    "fac_name":"Njala",
    "type":"CHC",
    "ownership":"Government",
    "functional":"Functional",
    "lat":8.200548,
    "long":-11.45943,
    "source":"DPPI",
    "source_geo":"GPS",
    "dhis2_id":"ONMRsrAnJJI",
    "geo_date":2016,
    "comments":" ",
    "x":-11.45943,
    "y":8.200548
  },
  {
    "FID":144,
    "district":"Bo",
    "community":"Gumahun",
    "facility":"Gumahun MCHP",
    "fac_name":"Gumahun",
    "type":"MCHP",
    "ownership":"Government",
    "functional":"Functional",
    "lat":8.202576,
    "long":-11.431253,
    "source":"DPPI",
    "source_geo":"GPS",
    "dhis2_id":"e4iHmxsV62n",
    "geo_date":2021,
    "comments":" ",
    "x":-11.4312530001,
    "y":8.202576
  },
  {
    "FID":145,
    "district":"Bo",
    "community":"Komboya Gbauja",
    "facility":"Komboya Gbauja MCHP",
    "fac_name":"Komboya Gbauja",
    "type":"MCHP",
    "ownership":"Government",
    "functional":"Functional",
    "lat":8.203226,
    "long":-11.50845,
    "source":"DPPI",
    "source_geo":"GPS",
    "dhis2_id":"V65lxKgyfvT",
    "geo_date":2016,
    "comments":" ",
    "x":-11.5084499997,
    "y":8.2032260003
  },
  {
    "FID":146,
    "district":"Bo",
    "community":"Ngogbebu",
    "facility":"Ngogbebu MCHP",
    "fac_name":"Ngogbebu",
    "type":"MCHP",
    "ownership":"Government",
    "functional":"Functional",
    "lat":8.214393,
    "long":-11.55062,
    "source":"DPPI",
    "source_geo":"GPS",
    "dhis2_id":"aDKIOiPyJOe",
    "geo_date":2016,
    "comments":" ",
    "x":-11.55062,
    "y":8.2143929999
  },
  {
    "FID":147,
    "district":"Bo",
    "community":"Kenema Blango",
    "facility":"Kenema Blango CHC",
    "fac_name":"Kenema Blango",
    "type":"CHC",
    "ownership":"Government",
    "functional":"Functional",
    "lat":8.217278,
    "long":-11.631569,
    "source":"DPPI",
    "source_geo":"GPS",
    "dhis2_id":"bDmClYKwVU2",
    "geo_date":2021,
    "comments":" ",
    "x":-11.6315689999,
    "y":8.2172779999
  },
  {
    "FID":148,
    "district":"Bo",
    "community":"Ngolahun Jabaty",
    "facility":"Ngolahun Jabaty CHP",
    "fac_name":"Ngolahun Jabaty",
    "type":"CHP",
    "ownership":"Government",
    "functional":"Functional",
    "lat":8.22062,
    "long":-11.5987,
    "source":"DPPI",
    "source_geo":"GPS",
    "dhis2_id":"V79bPcepOT0",
    "geo_date":2016,
    "comments":" ",
    "x":-11.5987000004,
    "y":8.2206200002
  },
  {
    "FID":149,
    "district":"Bo",
    "community":"Niagorehun Komboya",
    "facility":"Niagorehun MCHP",
    "fac_name":"Niagorehun",
    "type":"MCHP",
    "ownership":"Government",
    "functional":"Functional",
    "lat":8.237108,
    "long":-11.482924,
    "source":"DPPI",
    "source_geo":"GPS",
    "dhis2_id":"cmHvkvKnQL8",
    "geo_date":2021,
    "comments":" ",
    "x":-11.4829239997,
    "y":8.2371079997
  },
  {
    "FID":150,
    "district":"Bo",
    "community":"Grima  Valunia",
    "facility":"Grima CHP",
    "fac_name":"Grima",
    "type":"CHP",
    "ownership":"Government",
    "functional":"Functional",
    "lat":8.237278,
    "long":-11.690261,
    "source":"FMFL",
    "source_geo":"GPS",
    "dhis2_id":"Xc2cn1RF2jM",
    "geo_date":2015,
    "comments":" ",
    "x":-11.6902610004,
    "y":8.2372780004
  },
  {
    "FID":151,
    "district":"Bo",
    "community":"Teibor",
    "facility":"Teibor CHP",
    "fac_name":"Teibor",
    "type":"CHP",
    "ownership":"Government",
    "functional":"Functional",
    "lat":8.244979,
    "long":-11.5238,
    "source":"DPPI",
    "source_geo":"GPS",
    "dhis2_id":"GP23ynPio0G",
    "geo_date":2016,
    "comments":" ",
    "x":-11.5237999998,
    "y":8.2449790003
  },
  {
    "FID":152,
    "district":"Bo",
    "community":"Kpuabu",
    "facility":"Kpuabu MCHP",
    "fac_name":"Kpuabu",
    "type":"MCHP",
    "ownership":"Government",
    "functional":"Functional",
    "lat":8.28741,
    "long":-11.59817,
    "source":"SARA",
    "source_geo":"GPS",
    "dhis2_id":"pKia4n7hv0u",
    "geo_date":2017,
    "comments":" ",
    "x":-11.5981700002,
    "y":8.2874100001
  },
  {
    "FID":153,
    "district":"Bo",
    "community":"Foya",
    "facility":"Foya CHP",
    "fac_name":"Foya",
    "type":"CHP",
    "ownership":"Government",
    "functional":"Functional",
    "lat":8.287465,
    "long":-11.59828,
    "source":"DPPI",
    "source_geo":"GPS",
    "dhis2_id":"j6bbbvxo0fL",
    "geo_date":2016,
    "comments":" ",
    "x":-11.5982799999,
    "y":8.2874649999
  },
  {
    "FID":154,
    "district":"Bo",
    "community":"Kpamajama",
    "facility":"Kpamajama MCHP",
    "fac_name":"Kpamajama",
    "type":"MCHP",
    "ownership":"Government",
    "functional":"Functional",
    "lat":8.300375,
    "long":-11.496703,
    "source":"DPPI",
    "source_geo":"Village Center",
    "dhis2_id":"gDt7qtDGRIL",
    "geo_date":2021,
    "comments":" ",
    "x":-11.4967030002,
    "y":8.3003749999
  },
  {
    "FID":155,
    "district":"Bo",
    "community":"Mongere",
    "facility":"Mongere CHC",
    "fac_name":"Mongere",
    "type":"CHC",
    "ownership":"Government",
    "functional":"Functional",
    "lat":8.322762,
    "long":-11.73465,
    "source":"DPPI",
    "source_geo":"GPS",
    "dhis2_id":"EL3jmnVkTzP",
    "geo_date":2016,
    "comments":" ",
    "x":-11.7346499997,
    "y":8.3227619999
  },
  {
    "FID":156,
    "district":"Bo",
    "community":"Kpewama",
    "facility":"Kpewama MCHP",
    "fac_name":"Kpewama",
    "type":"MCHP",
    "ownership":"Government",
    "functional":"Functional",
    "lat":8.333246,
    "long":-11.552412,
    "source":"DPPI",
    "source_geo":"Village Center",
    "dhis2_id":"Kp6sZb5ZYyU",
    "geo_date":2016,
    "comments":" ",
    "x":-11.5524119999,
    "y":8.3332460004
  },
  {
    "FID":157,
    "district":"Bo",
    "community":"Baomahun",
    "facility":"Baomahun CHC",
    "fac_name":"Baomahun",
    "type":"CHC",
    "ownership":"Government",
    "functional":"Functional",
    "lat":8.416606,
    "long":-11.66756,
    "source":"DPPI",
    "source_geo":"GPS",
    "dhis2_id":"zHDk9w0QHsA",
    "geo_date":2016,
    "comments":" ",
    "x":-11.6675600004,
    "y":8.416606
  },
  {
    "FID":158,
    "district":"Bo",
    "community":"Pujehun",
    "facility":"Pujehun CHP",
    "fac_name":"Pujehun",
    "type":"CHP",
    "ownership":"Government",
    "functional":"Functional",
    "lat":8.443753,
    "long":-11.690192,
    "source":"SARA",
    "source_geo":"Village Center",
    "dhis2_id":"dpqokIMO5mb",
    "geo_date":2017,
    "comments":" ",
    "x":-11.690192,
    "y":8.443753
  },
  {
    "FID":159,
    "district":"Bo",
    "community":"Kpangbalia",
    "facility":"Kpangbalia MCHP",
    "fac_name":"Kpangbalia",
    "type":"MCHP",
    "ownership":"Government",
    "functional":"Functional",
    "lat":7.575571,
    "long":-11.9011,
    "source":"DPPI",
    "source_geo":"GPS",
    "dhis2_id":"KPA3AQeVTng",
    "geo_date":2016,
    "comments":" ",
    "x":-11.9010999999,
    "y":7.5755709996
  },
  {
    "FID":160,
    "district":"Bo",
    "community":"Joe Town",
    "facility":"Breakthrough CHP",
    "fac_name":"Breakthrough CHP",
    "type":"MCHP",
    "ownership":"Private",
    "functional":"Functional",
    "lat":7.946515086,
    "long":-11.742036917,
    "source":"DPPI",
    "source_geo":"GPS",
    "dhis2_id":"No Data",
    "geo_date":2023,
    "comments":" ",
    "x":-11.7420369168,
    "y":7.9465150861
  },
  {
    "FID":161,
    "district":"Bo",
    "community":"New England",
    "facility":"Veronica MCHP",
    "fac_name":"Veronica",
    "type":"MCHP",
    "ownership":"Private",
    "functional":"Functional",
    "lat":7.9312921,
    "long":-11.7173683,
    "source":"DPPI",
    "source_geo":"GPS",
    "dhis2_id":"No Data",
    "geo_date":2023,
    "comments":"Requires Validation\/Ground truthing",
    "x":-11.7173682999,
    "y":7.9312921
  },
  {
    "FID":162,
    "district":"Bo",
    "community":"Mano",
    "facility":"Mano MCHP",
    "fac_name":"Mano",
    "type":"MCHP",
    "ownership":"Government",
    "functional":"Functional",
    "lat":0.0,
    "long":0.0,
    "source":"DPPI",
    "source_geo":" ",
    "dhis2_id":"No Data",
    "geo_date":0,
    "comments":"no lat\/long",
    "x":null,
    "y":null
  },
  {
    "FID":163,
    "district":"Bo",
    "community":"Kendeyella- Ahmadiya community",
    "facility":"Kendeyella MCHP",
    "fac_name":"Kendeyella",
    "type":"MCHP",
    "ownership":"Private",
    "functional":"Functional",
    "lat":7.9314286,
    "long":-11.73199,
    "source":"DPPI",
    "source_geo":"GPS",
    "dhis2_id":"No Data",
    "geo_date":2023,
    "comments":" ",
    "x":-11.7319900002,
    "y":7.9314285999
  },
  {
    "FID":164,
    "district":"Western Area Urban",
    "community":"Allen Town",
    "facility":"Ad-Bangs Quarry CHP",
    "fac_name":"Ad-Bangs Quarry",
    "type":"CHP",
    "ownership":"Private",
    "functional":"Functional",
    "lat":8.413302,
    "long":-13.148343,
    "source":"DPPI",
    "source_geo":"Village Center",
    "dhis2_id":"Dq86w8tvw1h",
    "geo_date":2016,
    "comments":" ",
    "x":-13.1483429997,
    "y":8.4133019996
  },
  {
    "FID":165,
    "district":"Western Area Urban",
    "community":"Allen Town",
    "facility":"Allen Town CHC",
    "fac_name":"Allen Town",
    "type":"CHC",
    "ownership":"Government",
    "functional":"Functional",
    "lat":8.417641,
    "long":-13.15497,
    "source":"DPPI",
    "source_geo":"GPS",
    "dhis2_id":"FFDoJvNboOc",
    "geo_date":2016,
    "comments":" ",
    "x":-13.1549699996,
    "y":8.417641
  },
  {
    "FID":166,
    "district":"Western Area Urban",
    "community":"Calaba Town",
    "facility":"Awake CHP",
    "fac_name":"Awake",
    "type":"CHP",
    "ownership":"Private",
    "functional":"Functional",
    "lat":8.420163,
    "long":-13.15358,
    "source":"DPPI",
    "source_geo":"GPS",
    "dhis2_id":"phtyLB0ZfIz",
    "geo_date":2016,
    "comments":" ",
    "x":-13.1535800002,
    "y":8.4201630003
  },
  {
    "FID":167,
    "district":"Western Area Urban",
    "community":"Calaba Town",
    "facility":"Blessed Mokaba East CHP",
    "fac_name":"Blessed Mokaba East",
    "type":"CHP",
    "ownership":"Private",
    "functional":"Functional",
    "lat":8.43766,
    "long":-13.15932,
    "source":"DPPI",
    "source_geo":"GPS",
    "dhis2_id":"MAbVcVDQLnB",
    "geo_date":2021,
    "comments":" ",
    "x":-13.1593199996,
    "y":8.4376599996
  },
  {
    "FID":168,
    "district":"Western Area Urban",
    "community":"Calaba Town",
    "facility":"Calaba Town CHC",
    "fac_name":"Calaba Town",
    "type":"CHC",
    "ownership":"Government",
    "functional":"Functional",
    "lat":8.436592,
    "long":-13.16211,
    "source":"DPPI",
    "source_geo":"GPS",
    "dhis2_id":"dLj576hnFDX",
    "geo_date":2016,
    "comments":" ",
    "x":-13.1621099997,
    "y":8.4365919998
  },
  {
    "FID":169,
    "district":"Western Area Urban",
    "community":"Gassam Street FHM School",
    "facility":"Family Home Movement CHP",
    "fac_name":"Family Home Movement",
    "type":"CHP",
    "ownership":"Faith Based",
    "functional":"Functional",
    "lat":8.428985,
    "long":-13.17119,
    "source":"DPPI",
    "source_geo":"GPS",
    "dhis2_id":"WtN3ZQGwuCQ",
    "geo_date":2016,
    "comments":" ",
    "x":-13.1711900002,
    "y":8.4289849998
  },
  {
    "FID":170,
    "district":"Western Area Urban",
    "community":"Mayemi",
    "facility":"Mayemi MCHP",
    "fac_name":"Mayemi",
    "type":"MCHP",
    "ownership":"Private",
    "functional":"Functional",
    "lat":8.408275,
    "long":-13.14685,
    "source":"DPPI",
    "source_geo":"GPS",
    "dhis2_id":"pwnkzYInyDn",
    "geo_date":2016,
    "comments":" ",
    "x":-13.1468500001,
    "y":8.4082749998
  },
  {
    "FID":171,
    "district":"Western Area Urban",
    "community":"Moyiba",
    "facility":"Moyiba CHC",
    "fac_name":"Moyiba",
    "type":"CHC",
    "ownership":"Government",
    "functional":"Functional",
    "lat":8.473112,
    "long":-13.2063,
    "source":"DPPI",
    "source_geo":"GPS",
    "dhis2_id":"hxlOQgsOiX7",
    "geo_date":2016,
    "comments":" ",
    "x":-13.2062999996,
    "y":8.4731120004
  },
  {
    "FID":172,
    "district":"Western Area Urban",
    "community":"Moyiba",
    "facility":"Esther Faith CHP",
    "fac_name":"Esther Faith",
    "type":"CHP",
    "ownership":"Private",
    "functional":"Functional",
    "lat":8.473415,
    "long":-13.209468,
    "source":"DPPI",
    "source_geo":"GPS",
    "dhis2_id":"JdXvuZ51cp8",
    "geo_date":2021,
    "comments":" ",
    "x":-13.209468,
    "y":8.473415
  },
  {
    "FID":173,
    "district":"Western Area Urban",
    "community":"Orugu",
    "facility":"Orugu MCHP",
    "fac_name":"Orugu",
    "type":"MCHP",
    "ownership":"Private",
    "functional":"Functional",
    "lat":8.4012,
    "long":-13.150329,
    "source":"DPPI",
    "source_geo":"GPS",
    "dhis2_id":"yHvo3IPb6JE",
    "geo_date":2021,
    "comments":" ",
    "x":-13.1503289996,
    "y":8.4012
  },
  {
    "FID":174,
    "district":"Western Area Urban",
    "community":"Philip Street",
    "facility":"Philip Street MCHP",
    "fac_name":"Philip Street",
    "type":"MCHP",
    "ownership":"Private",
    "functional":"Functional",
    "lat":8.4454,
    "long":-13.17769,
    "source":"DPPI",
    "source_geo":"GPS",
    "dhis2_id":"RwlypyAsF1f",
    "geo_date":2016,
    "comments":" ",
    "x":-13.1776899996,
    "y":8.4454000004
  },
  {
    "FID":175,
    "district":"Western Area Urban",
    "community":"Kuntorloh",
    "facility":"Kuntorloh CHC",
    "fac_name":"Kuntorloh",
    "type":"CHC",
    "ownership":"Government",
    "functional":"Functional",
    "lat":8.461075,
    "long":-13.18106,
    "source":"DPPI",
    "source_geo":"GPS",
    "dhis2_id":"XHFf1H2Ev2H",
    "geo_date":2016,
    "comments":" ",
    "x":-13.1810600003,
    "y":8.4610750002
  },
  {
    "FID":176,
    "district":"Western Area Urban",
    "community":"Rokupa",
    "facility":"Rokupa Government Hospital",
    "fac_name":"Rokupa Government",
    "type":"HOSPITAL",
    "ownership":"Government",
    "functional":"Functional",
    "lat":8.460228,
    "long":-13.1726,
    "source":"DPPI",
    "source_geo":"GPS",
    "dhis2_id":"fLbXQWxFj9p",
    "geo_date":2016,
    "comments":" ",
    "x":-13.1725999996,
    "y":8.4602279998
  },
  {
    "FID":177,
    "district":"Western Area Urban",
    "community":"Fourah Bay Road",
    "facility":"Princess Christian Maternity Hospital",
    "fac_name":"Princess Christian Maternity",
    "type":"HOSPITAL",
    "ownership":"Government",
    "functional":"Functional",
    "lat":8.490027,
    "long":-13.21889,
    "source":"DPPI",
    "source_geo":"GPS",
    "dhis2_id":"t8FE33Abcdl",
    "geo_date":2021,
    "comments":" ",
    "x":-13.2188900002,
    "y":8.4900269998
  },
  {
    "FID":178,
    "district":"Western Area Urban",
    "community":"Fourah Bay Road",
    "facility":"Ola During Children'S Hospital",
    "fac_name":"Ola During Children'S",
    "type":"HOSPITAL",
    "ownership":"Government",
    "functional":"Functional",
    "lat":8.490099,
    "long":-13.21847,
    "source":"DPPI",
    "source_geo":"GPS",
    "dhis2_id":"KdVHHgrRd1s",
    "geo_date":2016,
    "comments":" ",
    "x":-13.2184699997,
    "y":8.4900989996
  },
  {
    "FID":179,
    "district":"Western Area Urban",
    "community":"Mabella",
    "facility":"Mabella CHC",
    "fac_name":"Mabella",
    "type":"CHC",
    "ownership":"Government",
    "functional":"Functional",
    "lat":8.490553,
    "long":-13.226338,
    "source":"DPPI",
    "source_geo":"GPS",
    "dhis2_id":"vsqCdFwaWap",
    "geo_date":2016,
    "comments":"Requires Validation\/Ground truthing",
    "x":-13.2263380001,
    "y":8.4905529998
  },
  {
    "FID":180,
    "district":"Western Area Urban",
    "community":"Regent Road",
    "facility":"Dr. Djo Robin Coker Clinic",
    "fac_name":"Dr. Djo Robin Coker",
    "type":"CLINIC",
    "ownership":"Private",
    "functional":"Functional",
    "lat":8.475724,
    "long":-13.264425,
    "source":"DPPI",
    "source_geo":"GPS",
    "dhis2_id":"cb0kCJxQTOE",
    "geo_date":2021,
    "comments":" ",
    "x":-13.2644250001,
    "y":8.4757240004
  },
  {
    "FID":181,
    "district":"Western Area Urban",
    "community":"Spur Road",
    "facility":"UN Joint Medical Services Clinic",
    "fac_name":"UN Joint Medical Services",
    "type":"CLINIC",
    "ownership":"Private",
    "functional":"Functional",
    "lat":8.46622,
    "long":-13.27296,
    "source":"DPPI",
    "source_geo":"GPS",
    "dhis2_id":"qdDShjKIhU5",
    "geo_date":2021,
    "comments":" ",
    "x":-13.2729599998,
    "y":8.4662200001
  },
  {
    "FID":182,
    "district":"Western Area Urban",
    "community":"Howe Street",
    "facility":"Dr. Victor Willoughby Memorial Hospital",
    "fac_name":"Dr. Victor Willoughby Memorial",
    "type":"HOSPITAL",
    "ownership":"Private",
    "functional":"Functional",
    "lat":8.490676,
    "long":-13.234228,
    "source":"DPPI",
    "source_geo":"GPS",
    "dhis2_id":"yI3v9Lyrqts",
    "geo_date":2016,
    "comments":" ",
    "x":-13.2342279997,
    "y":8.4906760001
  },
  {
    "FID":183,
    "district":"Western Area Urban",
    "community":"Liverpool Street",
    "facility":"Dr. Ado Wright Clinic",
    "fac_name":"Dr. Ado Wright",
    "type":"CLINIC",
    "ownership":"Private",
    "functional":"Functional",
    "lat":8.487102,
    "long":-13.238077,
    "source":"DPPI",
    "source_geo":"GPS",
    "dhis2_id":"bJa0yZUne25",
    "geo_date":2021,
    "comments":" ",
    "x":-13.2380770001,
    "y":8.4871019999
  },
  {
    "FID":184,
    "district":"Western Area Urban",
    "community":"Waterloo Street",
    "facility":"Marie Stopes Clinic",
    "fac_name":"Marie Stopes",
    "type":"CLINIC",
    "ownership":"Private",
    "functional":"Functional",
    "lat":8.486073,
    "long":-13.240108,
    "source":"DPPI",
    "source_geo":"GPS",
    "dhis2_id":"D3vFLtTGgHQ",
    "geo_date":2021,
    "comments":" ",
    "x":-13.2401080002,
    "y":8.4860730001
  },
  {
    "FID":185,
    "district":"Western Area Urban",
    "community":"Pultney Street",
    "facility":"Red Cross Clinic",
    "fac_name":"Red Cross",
    "type":"CLINIC",
    "ownership":"Government",
    "functional":"Non-Functional",
    "lat":8.487861,
    "long":-13.237004,
    "source":"DPPI",
    "source_geo":"GPS",
    "dhis2_id":"EtbiDukiXfn",
    "geo_date":2021,
    "comments":" ",
    "x":-13.237004,
    "y":8.4878609998
  },
  {
    "FID":186,
    "district":"Western Area Urban",
    "community":"Murray Town",
    "facility":"Murray Town CHC",
    "fac_name":"Murray Town",
    "type":"CHC",
    "ownership":"Government",
    "functional":"Functional",
    "lat":8.49536,
    "long":-13.26405,
    "source":"DPPI",
    "source_geo":"GPS",
    "dhis2_id":"gqqUZTprWxy",
    "geo_date":2016,
    "comments":" ",
    "x":-13.2640499999,
    "y":8.4953600003
  },
  {
    "FID":187,
    "district":"Western Area Urban",
    "community":"Thompson Bay",
    "facility":"Thompson Bay MCHP",
    "fac_name":"Thompson Bay",
    "type":"MCHP",
    "ownership":"Private",
    "functional":"Functional",
    "lat":8.478405,
    "long":-13.27427,
    "source":"DPPI",
    "source_geo":"GPS",
    "dhis2_id":"cxVkhQUDgvm",
    "geo_date":2016,
    "comments":" ",
    "x":-13.27427,
    "y":8.4784049999
  },
  {
    "FID":188,
    "district":"Western Area Urban",
    "community":"Lumely",
    "facility":"Life Care Hospital",
    "fac_name":"Life Care",
    "type":"HOSPITAL",
    "ownership":"Private",
    "functional":"Functional",
    "lat":8.46013,
    "long":-13.270822,
    "source":"DPPI",
    "source_geo":"GPS",
    "dhis2_id":"hJRYIuixEBe",
    "geo_date":2021,
    "comments":" ",
    "x":-13.2708220001,
    "y":8.4601299998
  },
  {
    "FID":189,
    "district":"Western Area Urban",
    "community":"Lumley Government",
    "facility":"Lumley Government Hospital",
    "fac_name":"Lumley Government",
    "type":"HOSPITAL",
    "ownership":"Government",
    "functional":"Functional",
    "lat":8.451305,
    "long":-13.26254,
    "source":"DPPI",
    "source_geo":"GPS",
    "dhis2_id":"weB1h7rtWwI",
    "geo_date":2016,
    "comments":" ",
    "x":-13.2625400004,
    "y":8.4513050002
  },
  {
    "FID":190,
    "district":"Western Area Urban",
    "community":"Malama",
    "facility":"Malama CHP",
    "fac_name":"Malama",
    "type":"CHP",
    "ownership":"Private",
    "functional":"Functional",
    "lat":8.451258,
    "long":-13.25328,
    "source":"DPPI",
    "source_geo":"GPS",
    "dhis2_id":"K4WtVIkLY0I",
    "geo_date":2016,
    "comments":" ",
    "x":-13.2532799997,
    "y":8.4512579999
  },
  {
    "FID":191,
    "district":"Western Area Urban",
    "community":"Hill Station",
    "facility":"Choithram Memorial Hospital",
    "fac_name":"Choithram Memorial",
    "type":"HOSPITAL",
    "ownership":"Private",
    "functional":"Functional",
    "lat":8.455109,
    "long":-13.248357,
    "source":"DPPI",
    "source_geo":"GPS",
    "dhis2_id":"Dc8E3ZOJfBg",
    "geo_date":2016,
    "comments":" ",
    "x":-13.2483570002,
    "y":8.4551090003
  },
  {
    "FID":192,
    "district":"Western Area Urban",
    "community":"Hill Station",
    "facility":"Sunshine MCHP",
    "fac_name":"Sunshine",
    "type":"MCHP",
    "ownership":"Private",
    "functional":"Functional",
    "lat":8.456792,
    "long":-13.24157,
    "source":"DPPI",
    "source_geo":"GPS",
    "dhis2_id":"TMiymhV4APd",
    "geo_date":2016,
    "comments":" ",
    "x":-13.2415700002,
    "y":8.4567919997
  },
  {
    "FID":193,
    "district":"Western Area Urban",
    "community":"Hill Station",
    "facility":"Hill Station CHP",
    "fac_name":"Hill Station",
    "type":"CHP",
    "ownership":"Private",
    "functional":"Functional",
    "lat":8.456576,
    "long":-13.24916,
    "source":"DPPI",
    "source_geo":"GPS",
    "dhis2_id":"eqgwpDg0qUv",
    "geo_date":2016,
    "comments":" ",
    "x":-13.2491600003,
    "y":8.4565759996
  },
  {
    "FID":194,
    "district":"Western Area Urban",
    "community":"Pentagon",
    "facility":"Pentagon CHP",
    "fac_name":"Pentagon",
    "type":"CHP",
    "ownership":"Private",
    "functional":"Functional",
    "lat":8.445826,
    "long":-13.24425,
    "source":"DPPI",
    "source_geo":"GPS",
    "dhis2_id":"iwIntTqceF4",
    "geo_date":2021,
    "comments":" ",
    "x":-13.2442499996,
    "y":8.4458260003
  },
  {
    "FID":195,
    "district":"Western Area Urban",
    "community":"Tassoh",
    "facility":"Tassoh MCHP",
    "fac_name":"Tassoh",
    "type":"MCHP",
    "ownership":"Government",
    "functional":"Functional",
    "lat":8.492198,
    "long":-13.210144,
    "source":"DPPI",
    "source_geo":"GPS",
    "dhis2_id":"LpkLLNPflex",
    "geo_date":2016,
    "comments":"Requires Validation\/Ground truthing",
    "x":-13.2101439997,
    "y":8.4921980001
  },
  {
    "FID":196,
    "district":"Western Area Urban",
    "community":"Mayenkineh Road",
    "facility":"Al-Khatab CHC",
    "fac_name":"Al-Khatab",
    "type":"CHC",
    "ownership":"Faith Based",
    "functional":"Functional",
    "lat":8.430264,
    "long":-13.16449,
    "source":"DPPI",
    "source_geo":"GPS",
    "dhis2_id":"jgKElj4o4a6",
    "geo_date":2021,
    "comments":" ",
    "x":-13.1644899997,
    "y":8.4302640003
  },
  {
    "FID":197,
    "district":"Western Area Urban",
    "community":"Calabatown",
    "facility":"Arab Clinic",
    "fac_name":"Arab",
    "type":"CLINIC",
    "ownership":"Private",
    "functional":"Functional",
    "lat":8.437413,
    "long":-13.159323,
    "source":"DPPI",
    "source_geo":"GPS",
    "dhis2_id":"B2Y54XPyuNi",
    "geo_date":2021,
    "comments":" ",
    "x":-13.1593229998,
    "y":8.4374129999
  },
  {
    "FID":198,
    "district":"Western Area Urban",
    "community":"Shell",
    "facility":"Arab Shell Clinic",
    "fac_name":"Arab Shell",
    "type":"CLINIC",
    "ownership":"Private",
    "functional":"Functional",
    "lat":8.475452,
    "long":-13.190172,
    "source":"DPPI",
    "source_geo":"GPS",
    "dhis2_id":"wDChzCfqaXt",
    "geo_date":2021,
    "comments":" ",
    "x":-13.1901719996,
    "y":8.4754520004
  },
  {
    "FID":199,
    "district":"Western Area Urban",
    "community":"Kissy Shell",
    "facility":"Haja Neneh CHP",
    "fac_name":"Haja Neneh",
    "type":"CHP",
    "ownership":"Private",
    "functional":"Functional",
    "lat":8.474655,
    "long":-13.19341,
    "source":"DPPI",
    "source_geo":"GPS",
    "dhis2_id":"R2ZpT40Q9JS",
    "geo_date":2016,
    "comments":" ",
    "x":-13.1934099997,
    "y":8.4746549996
  },
  {
    "FID":200,
    "district":"Western Area Urban",
    "community":"Shell",
    "facility":"Thullahs Clinic",
    "fac_name":"Thullahs",
    "type":"CLINIC",
    "ownership":"Private",
    "functional":"Functional",
    "lat":8.473974,
    "long":-13.189724,
    "source":"DPPI",
    "source_geo":"GPS",
    "dhis2_id":"vSUCUnUBiw5",
    "geo_date":2021,
    "comments":" ",
    "x":-13.1897239997,
    "y":8.4739739997
  },
  {
    "FID":201,
    "district":"Western Area Urban",
    "community":"Kola Tree",
    "facility":"Kola Tree MCHP",
    "fac_name":"Kola Tree",
    "type":"MCHP",
    "ownership":"Private",
    "functional":"Functional",
    "lat":8.42728,
    "long":-13.16106,
    "source":"DPPI",
    "source_geo":"GPS",
    "dhis2_id":"NpmaDrb0sHC",
    "geo_date":2021,
    "comments":" ",
    "x":-13.1610599998,
    "y":8.4272800003
  },
  {
    "FID":202,
    "district":"Western Area Urban",
    "community":"Koya Town",
    "facility":"Koya Town CHC",
    "fac_name":"Koya Town",
    "type":"CHC",
    "ownership":"Government",
    "functional":"Functional",
    "lat":8.436744,
    "long":-13.17616,
    "source":"DPPI",
    "source_geo":"GPS",
    "dhis2_id":"xIlRfCNylDl",
    "geo_date":2016,
    "comments":" ",
    "x":-13.1761600001,
    "y":8.4367439996
  },
  {
    "FID":203,
    "district":"Western Area Urban",
    "community":"Wellington",
    "facility":"St. Luke's Wellington Clinic",
    "fac_name":"St. Luke's Wellington",
    "type":"CLINIC",
    "ownership":"Faith Based",
    "functional":"Functional",
    "lat":8.44782,
    "long":-13.167764,
    "source":"DPPI",
    "source_geo":"GPS",
    "dhis2_id":"PylIpdT6LmI",
    "geo_date":2021,
    "comments":" ",
    "x":-13.1677639996,
    "y":8.4478199996
  },
  {
    "FID":204,
    "district":"Western Area Urban",
    "community":"Wellington",
    "facility":"Wellington CHC",
    "fac_name":"Wellington",
    "type":"CHC",
    "ownership":"Government",
    "functional":"Functional",
    "lat":8.448102,
    "long":-13.16771,
    "source":"DPPI",
    "source_geo":"GPS",
    "dhis2_id":"w2uh2oZ1HyV",
    "geo_date":2016,
    "comments":" ",
    "x":-13.1677099998,
    "y":8.448102
  },
  {
    "FID":205,
    "district":"Western Area Urban",
    "community":"Wellington",
    "facility":"Holy Mary Clinic",
    "fac_name":"Holy Mary",
    "type":"CLINIC",
    "ownership":"Faith Based",
    "functional":"Functional",
    "lat":8.451024,
    "long":-13.16908,
    "source":"DPPI",
    "source_geo":"GPS",
    "dhis2_id":"XePzIbFYSCE",
    "geo_date":2021,
    "comments":" ",
    "x":-13.16908,
    "y":8.4510239999
  },
  {
    "FID":206,
    "district":"Western Area Urban",
    "community":"Old Wharf",
    "facility":"Slims CHP",
    "fac_name":"Slims",
    "type":"CHP",
    "ownership":"Faith Based",
    "functional":"Functional",
    "lat":8.445135,
    "long":-13.16001,
    "source":"DPPI",
    "source_geo":"GPS",
    "dhis2_id":"KOiBAyJi8kx",
    "geo_date":2016,
    "comments":" ",
    "x":-13.16001,
    "y":8.4451349999
  },
  {
    "FID":207,
    "district":"Western Area Urban",
    "community":"Approved School",
    "facility":"Approved School CHC",
    "fac_name":"Approved School",
    "type":"CHC",
    "ownership":"Government",
    "functional":"Functional",
    "lat":8.459114,
    "long":-13.176131,
    "source":"DPPI",
    "source_geo":"Village Center",
    "dhis2_id":"GfkWK0go9uI",
    "geo_date":2021,
    "comments":" ",
    "x":-13.1761309996,
    "y":8.4591139997
  },
  {
    "FID":208,
    "district":"Western Area Urban",
    "community":"Portee",
    "facility":"Iscon CHP",
    "fac_name":"Iscon",
    "type":"CHP",
    "ownership":"Private",
    "functional":"Functional",
    "lat":8.467218,
    "long":-13.174246,
    "source":"DPPI",
    "source_geo":"GPS",
    "dhis2_id":"rAFkc9vfzqO",
    "geo_date":2016,
    "comments":" ",
    "x":-13.174246,
    "y":8.4672180002
  },
  {
    "FID":209,
    "district":"Western Area Urban",
    "community":"Looking Town",
    "facility":"Looking Town MCHP",
    "fac_name":"Looking Town",
    "type":"MCHP",
    "ownership":"Private",
    "functional":"Functional",
    "lat":8.462171,
    "long":-13.1945,
    "source":"DPPI",
    "source_geo":"GPS",
    "dhis2_id":"QQaicliQ6fP",
    "geo_date":2016,
    "comments":" ",
    "x":-13.1944999996,
    "y":8.4621710004
  },
  {
    "FID":210,
    "district":"Western Area Urban",
    "community":"Low Cost",
    "facility":"St. Joseph'S CHC",
    "fac_name":"St. Joseph'S",
    "type":"CHC",
    "ownership":"Faith Based",
    "functional":"Functional",
    "lat":8.468138,
    "long":-13.18235,
    "source":"DPPI",
    "source_geo":"GPS",
    "dhis2_id":"vo2eoEHYiDL",
    "geo_date":2021,
    "comments":" ",
    "x":-13.1823499996,
    "y":8.4681380004
  },
  {
    "FID":211,
    "district":"Western Area Urban",
    "community":"Grassfield",
    "facility":"Tasley Global Clinic",
    "fac_name":"Tasley Global",
    "type":"CLINIC",
    "ownership":"Private",
    "functional":"Functional",
    "lat":8.468032,
    "long":-13.17784,
    "source":"DPPI",
    "source_geo":"GPS",
    "dhis2_id":"wDiuifXK4Fz",
    "geo_date":2016,
    "comments":" ",
    "x":-13.1778400002,
    "y":8.468032
  },
  {
    "FID":212,
    "district":"Western Area Urban",
    "community":"Grassfield",
    "facility":"Wesleyan Health CHP",
    "fac_name":"Wesleyan Health",
    "type":"CHP",
    "ownership":"Faith Based",
    "functional":"Functional",
    "lat":8.468002,
    "long":-13.180858,
    "source":"DPPI",
    "source_geo":"GPS",
    "dhis2_id":"pnMrzmoaNcR",
    "geo_date":2021,
    "comments":" ",
    "x":-13.180858,
    "y":8.4680020004
  },
  {
    "FID":213,
    "district":"Western Area Urban",
    "community":"Kissy",
    "facility":"Kissy CHC",
    "fac_name":"Kissy",
    "type":"CHC",
    "ownership":"Government",
    "functional":"Functional",
    "lat":8.465447,
    "long":-13.19347,
    "source":"DPPI",
    "source_geo":"GPS",
    "dhis2_id":"P5h4qhH7rE8",
    "geo_date":2016,
    "comments":" ",
    "x":-13.1934699997,
    "y":8.4654470004
  },
  {
    "FID":214,
    "district":"Western Area Urban",
    "community":"Kissy",
    "facility":"Sierra Leone Psychiatric Hospital",
    "fac_name":"Sierra Leone Psychiatric",
    "type":"HOSPITAL",
    "ownership":"Government",
    "functional":"Functional",
    "lat":8.465374,
    "long":-13.193769,
    "source":"DPPI",
    "source_geo":"Village Center",
    "dhis2_id":"fiA5E4B8JyN",
    "geo_date":2021,
    "comments":" ",
    "x":-13.193769,
    "y":8.4653739997
  },
  {
    "FID":215,
    "district":"Western Area Urban",
    "community":"Kissy",
    "facility":"Lowell And Ruth Gess Umc Eye Hospital",
    "fac_name":"Lowell And Ruth Gess Umc Eye",
    "type":"HOSPITAL",
    "ownership":"Private",
    "functional":"Functional",
    "lat":8.475787,
    "long":-13.194743,
    "source":"DPPI",
    "source_geo":"GPS",
    "dhis2_id":"No Data",
    "geo_date":2021,
    "comments":" ",
    "x":-13.194743,
    "y":8.4757869997
  },
  {
    "FID":216,
    "district":"Western Area Urban",
    "community":"Black Road",
    "facility":"Julipha Ashobie Corner MCHP",
    "fac_name":"Julipha Ashobie Corner",
    "type":"MCHP",
    "ownership":"Private",
    "functional":"Functional",
    "lat":8.47747,
    "long":-13.211743,
    "source":"DPPI",
    "source_geo":"GPS",
    "dhis2_id":"FPAy6MwNMRP",
    "geo_date":2021,
    "comments":" ",
    "x":-13.2117429997,
    "y":8.4774699999
  },
  {
    "FID":217,
    "district":"Western Area Urban",
    "community":"Thunder Hill",
    "facility":"Thunder Hill MCHP",
    "fac_name":"Thunder Hill",
    "type":"MCHP",
    "ownership":"Private",
    "functional":"Functional",
    "lat":8.463721,
    "long":-13.187337,
    "source":"DPPI",
    "source_geo":"GPS",
    "dhis2_id":"GbsMtRAqWHq",
    "geo_date":2021,
    "comments":" ",
    "x":-13.1873370002,
    "y":8.4637209999
  },
  {
    "FID":218,
    "district":"Western Area Urban",
    "community":"Upper Allen Town",
    "facility":"Upal MCHP",
    "fac_name":"Upal",
    "type":"MCHP",
    "ownership":"Government",
    "functional":"Functional",
    "lat":8.40757,
    "long":-13.152854,
    "source":"DPPI",
    "source_geo":"GPS",
    "dhis2_id":"vFyCAw8R2RG",
    "geo_date":2021,
    "comments":" ",
    "x":-13.152854,
    "y":8.4075699997
  },
  {
    "FID":219,
    "district":"Western Area Urban",
    "community":"Coconut Farm",
    "facility":"Coconut Farm MCHP",
    "fac_name":"Coconut Farm",
    "type":"MCHP",
    "ownership":"Private",
    "functional":"Functional",
    "lat":8.479777,
    "long":-13.21334,
    "source":"DPPI",
    "source_geo":"GPS",
    "dhis2_id":"Y4jPy4wX78C",
    "geo_date":2021,
    "comments":" ",
    "x":-13.2133399996,
    "y":8.4797770002
  },
  {
    "FID":220,
    "district":"Western Area Urban",
    "community":"Cline Town",
    "facility":"Guoji Clinic",
    "fac_name":"Guoji",
    "type":"CLINIC",
    "ownership":"Private",
    "functional":"Functional",
    "lat":8.489083,
    "long":-13.210081,
    "source":"DPPI",
    "source_geo":"GPS",
    "dhis2_id":"TrBY64DGrZa",
    "geo_date":2021,
    "comments":" ",
    "x":-13.2100810004,
    "y":8.4890830004
  },
  {
    "FID":221,
    "district":"Western Area Urban",
    "community":"Ross Road",
    "facility":"Ross Road CHC",
    "fac_name":"Ross Road",
    "type":"CHC",
    "ownership":"Government",
    "functional":"Functional",
    "lat":8.48867,
    "long":-13.210901,
    "source":"DPPI",
    "source_geo":"GPS",
    "dhis2_id":"wA6CGreVqfx",
    "geo_date":2016,
    "comments":" ",
    "x":-13.2109009996,
    "y":8.4886700002
  },
  {
    "FID":222,
    "district":"Western Area Urban",
    "community":"Dan Street",
    "facility":"Fourah Bay Community MCHP",
    "fac_name":"Fourah Bay Community",
    "type":"MCHP",
    "ownership":"Private",
    "functional":"Functional",
    "lat":8.485929,
    "long":-13.216009,
    "source":"DPPI",
    "source_geo":"GPS",
    "dhis2_id":"IR4tA2nKhd8",
    "geo_date":2021,
    "comments":" ",
    "x":-13.2160090004,
    "y":8.4859289997
  },
  {
    "FID":223,
    "district":"Western Area Urban",
    "community":"Ginger Hall",
    "facility":"Ginger Hall CHC",
    "fac_name":"Ginger Hall",
    "type":"CHC",
    "ownership":"Government",
    "functional":"Functional",
    "lat":8.481572,
    "long":-13.21847,
    "source":"DPPI",
    "source_geo":"GPS",
    "dhis2_id":"OzFoTO5DaqB",
    "geo_date":2016,
    "comments":" ",
    "x":-13.2184699997,
    "y":8.4815720002
  },
  {
    "FID":224,
    "district":"Western Area Urban",
    "community":"Susan's Bay",
    "facility":"Susan's Bay CHC",
    "fac_name":"Susan's Bay",
    "type":"CHC",
    "ownership":"Government",
    "functional":"Functional",
    "lat":8.488784,
    "long":-13.22871,
    "source":"DPPI",
    "source_geo":"GPS",
    "dhis2_id":"CTugfv2D07K",
    "geo_date":2016,
    "comments":" ",
    "x":-13.2287099998,
    "y":8.4887840001
  },
  {
    "FID":225,
    "district":"Western Area Urban",
    "community":"Regent Road",
    "facility":"Rejani Clinic",
    "fac_name":"Rejani",
    "type":"CLINIC",
    "ownership":"Private",
    "functional":"Functional",
    "lat":8.479977,
    "long":-13.245904,
    "source":"DPPI",
    "source_geo":"GPS",
    "dhis2_id":"cPLXnNFVl4F",
    "geo_date":2021,
    "comments":" ",
    "x":-13.2459040004,
    "y":8.4799770004
  },
  {
    "FID":226,
    "district":"Western Area Urban",
    "community":"Regent Road",
    "facility":"Marina House Birth Center Clinic",
    "fac_name":"Marina House Birth Center",
    "type":"CLINIC",
    "ownership":"Private",
    "functional":"Functional",
    "lat":8.482302,
    "long":-13.230285,
    "source":"DPPI",
    "source_geo":"GPS",
    "dhis2_id":"jSRMUmzcva4",
    "geo_date":2021,
    "comments":" ",
    "x":-13.2302849996,
    "y":8.4823019997
  },
  {
    "FID":227,
    "district":"Western Area Urban",
    "community":"Regent Road",
    "facility":"Abernita Hospital",
    "fac_name":"Abernita",
    "type":"HOSPITAL",
    "ownership":"Private",
    "functional":"Functional",
    "lat":8.489831,
    "long":-13.231497,
    "source":"DPPI",
    "source_geo":"GPS",
    "dhis2_id":"GvZ4yXIjxsY",
    "geo_date":2021,
    "comments":" ",
    "x":-13.2314969997,
    "y":8.4898309998
  },
  {
    "FID":228,
    "district":"Western Area Urban",
    "community":"Kingharman Road",
    "facility":"Aspen Medical Clinic",
    "fac_name":"Aspen Medical",
    "type":"CLINIC",
    "ownership":"Private",
    "functional":"Functional",
    "lat":8.472141,
    "long":-13.246324,
    "source":"DPPI",
    "source_geo":"GPS",
    "dhis2_id":"No Data",
    "geo_date":2021,
    "comments":" ",
    "x":-13.246324,
    "y":8.4721409997
  },
  {
    "FID":229,
    "district":"Western Area Urban",
    "community":"Kingharman Road",
    "facility":"Econmed Medical Center Clinic",
    "fac_name":"Econmed Medical Center",
    "type":"CLINIC",
    "ownership":"Private",
    "functional":"Functional",
    "lat":8.471327,
    "long":-13.246492,
    "source":"DPPI",
    "source_geo":"GPS",
    "dhis2_id":"iwg13ybsstr",
    "geo_date":2021,
    "comments":" ",
    "x":-13.2464919996,
    "y":8.4713269999
  },
  {
    "FID":230,
    "district":"Western Area Urban",
    "community":"Kingharman Road",
    "facility":"Blue Shield Hospital",
    "fac_name":"Blue Shield",
    "type":"HOSPITAL",
    "ownership":"Private",
    "functional":"Functional",
    "lat":8.480153,
    "long":-13.253241,
    "source":"DPPI",
    "source_geo":"GPS",
    "dhis2_id":"H2J2Z8xrc5s",
    "geo_date":2021,
    "comments":" ",
    "x":-13.2532409997,
    "y":8.4801529996
  },
  {
    "FID":231,
    "district":"Western Area Urban",
    "community":"Kingharman Road",
    "facility":"Kingharman Road Hospital",
    "fac_name":"Kingharman Road",
    "type":"HOSPITAL",
    "ownership":"Government",
    "functional":"Functional",
    "lat":8.473391,
    "long":-13.24827,
    "source":"DPPI",
    "source_geo":"GPS",
    "dhis2_id":"E2F4cmLFF2l",
    "geo_date":2016,
    "comments":" ",
    "x":-13.2482699998,
    "y":8.4733909998
  },
  {
    "FID":232,
    "district":"Western Area Urban",
    "community":"Wilkinson Road",
    "facility":"Aids Health Foundation Clinic",
    "fac_name":"Aids Health Foundation",
    "type":"CLINIC",
    "ownership":"Private",
    "functional":"Functional",
    "lat":8.485115,
    "long":-13.264703,
    "source":"DPPI",
    "source_geo":"GPS",
    "dhis2_id":"CAAuzbg7IFd",
    "geo_date":2021,
    "comments":" ",
    "x":-13.2647030003,
    "y":8.485115
  },
  {
    "FID":233,
    "district":"Western Area Urban",
    "community":"Kingharman Road",
    "facility":"Affordable Health Clinic",
    "fac_name":"Affordable Health",
    "type":"CLINIC",
    "ownership":"Private",
    "functional":"Functional",
    "lat":8.472608,
    "long":-13.247976,
    "source":"DPPI",
    "source_geo":"GPS",
    "dhis2_id":"dsmi7uEIEEn",
    "geo_date":2021,
    "comments":" ",
    "x":-13.2479759997,
    "y":8.4726079997
  },
  {
    "FID":234,
    "district":"Western Area Urban",
    "community":"Kingharman Road",
    "facility":"Tresure Health Specialist Hospital",
    "fac_name":"Tresure Health Specialist",
    "type":"HOSPITAL",
    "ownership":"Private",
    "functional":"Functional",
    "lat":8.470297,
    "long":-13.2469,
    "source":"DPPI",
    "source_geo":"GPS",
    "dhis2_id":"rHlZVkBsYS2",
    "geo_date":2021,
    "comments":" ",
    "x":-13.2469000004,
    "y":8.4702970001
  },